[{"name": "CHAMPEAUX (BAGNOLET)", "longitude": 2.416170724425901, "latitude": 48.8645278209514, "address": "RUE DES CHAMPEAUX (PRES DE LA GARE ROUTIERE)", "number": 31705, "city": "BAGNOLET", "zip_code": "93170"}, {"name": "POISSONNI\u00c3\u02c6RE - ENGHIEN", "longitude": 2.348395236282807, "latitude": 48.87242006305313, "address": "52 RUE D'ENGHIEN / ANGLE RUE DU FAUBOURG POISSONIERE - 75010 PA", "number": 10042, "city": " D'ENGHIEN / ANGLE RUE DU FAUBOURG POISSONIERE - 75010 PARIS", "zip_code": "52"}, {"name": "METRO ROME", "longitude": 2.319860054774211, "latitude": 48.882148945631904, "address": "74 BOULEVARD DES BATIGNOLLES - 75008 PA", "number": 8020, "city": "LEVARD DES BATIGNOLLES - 75008 PARIS", "zip_code": "74"}, {"name": "RUE DE LA PAIX", "longitude": 2.330493511399174, "latitude": 48.8682170167744, "address": "37 RUE CASANOVA - 75001 PA", "number": 1022, "city": " CASANOVA - 75001 PARIS", "zip_code": "37"}, {"name": "DE GAULLE (PANTIN)", "longitude": 2.412715733388685, "latitude": 48.893268664697416, "address": "139 AVENUE JEAN LOLIVE / MAIL CHARLES DE GAULLE - 93500 PAN", "number": 35014, "city": "ENUE JEAN LOLIVE / MAIL CHARLES DE GAULLE - 93500 PANTIN", "zip_code": "139"}, {"name": "PARC DE BELLEVILLE", "longitude": 2.384222472712587, "latitude": 48.870393671603765, "address": "57 & 36 RUE JULIEN LACROIX - 75020 PA", "number": 20040, "city": "6 RUE JULIEN LACROIX - 75020 PARIS", "zip_code": "57"}, {"name": "SOLJENITSYNE (PUTEAUX)", "longitude": 2.24772065, "latitude": 48.884478, "address": "BOULEVARD ALEXANDRE SOLJENITSYNE", "number": 28002, "city": "PUTEAUX", "zip_code": "92800"}, {"name": "SERRES", "longitude": 2.295789480315903, "latitude": 48.834658862792736, "address": "48 RUE OLIVIER DE SERRES - 75015 PA", "number": 15111, "city": " OLIVIER DE SERRES - 75015 PARIS", "zip_code": "48"}, {"name": "PYRAMIDE ARTILLERIE", "longitude": 2.437655339082955, "latitude": 48.839041145908176, "address": "ROUTE DE L'ARTILLERIE", "number": 12124, "city": "PARIS", "zip_code": "75012"}, {"name": "SAINT GEORGES", "longitude": 2.337446804203667, "latitude": 48.877872278317966, "address": "56 RUE SAINT GEORGES - 75009 PA", "number": 9021, "city": " SAINT GEORGES - 75009 PARIS", "zip_code": "56"}, {"name": "MUS\u00c3\u2030E D'ORSAY", "longitude": 2.325809024625026, "latitude": 48.85971010443503, "address": "62 RUE DE LILLE - 75007 PA", "number": 7007, "city": " DE LILLE - 75007 PARIS", "zip_code": "62"}, {"name": "PYR\u00c3\u2030N\u00c3\u2030ES-DAGORNO", "longitude": 2.405168520639166, "latitude": 48.85550135398888, "address": "103 RUE DES PYRENNEES - 75020 PA", "number": 20011, "city": "E DES PYRENNEES - 75020 PARIS", "zip_code": "103"}, {"name": "SAINT JACQUES GAY LUSSAC", "longitude": 2.341923944866407, "latitude": 48.844730256132095, "address": "27 RUE GAY LUSSAC - 75005 PA", "number": 5005, "city": " GAY LUSSAC - 75005 PARIS", "zip_code": "27"}, {"name": "KARMAN (AUBERVILLIERS)", "longitude": 2.385052018244114, "latitude": 48.910143671003794, "address": "FA", "number": 33006, "city": "E ANDRE KARMAN - 93300 AUBERVILLIERS", "zip_code": "143"}, {"name": "BEAUBOURG PLACE MICHELET", "longitude": 2.350148335920203, "latitude": 48.86008832610481, "address": "FA", "number": 4020, "city": " QUINCAMPOIX - 75004 PARIS", "zip_code": "27"}, {"name": "MENILMONTANT OBERKAMPF", "longitude": 2.38301344041578, "latitude": 48.8666176586814, "address": "137 BOULEVARD MENILMONTANT - 75011 PA", "number": 11029, "city": "ULEVARD MENILMONTANT - 75011 PARIS", "zip_code": "137"}, {"name": "CITE VANEAU", "longitude": 2.319454010061415, "latitude": 48.854268334051035, "address": "7 CITE VANEAU - 75007 PA", "number": 7012, "city": " VANEAU - 75007 PARIS", "zip_code": "7"}, {"name": "PETIT HONNEGER", "longitude": 2.393637514433606, "latitude": 48.886389634924626, "address": "124 RUE PETIT - 75019 PA", "number": 19019, "city": "E PETIT - 75019 PARIS", "zip_code": "124"}, {"name": "ARAGO 2", "longitude": 2.34157863455693, "latitude": 48.83512886504287, "address": "36 RUE DE LA SANTE - 75014 PA", "number": 14113, "city": " DE LA SANTE - 75014 PARIS", "zip_code": "36"}, {"name": "DUPLEIX", "longitude": 2.291889313228121, "latitude": 48.851396721123486, "address": "54 BOULEVARD DE GRENELLE - 75015 PA", "number": 15028, "city": "LEVARD DE GRENELLE - 75015 PARIS", "zip_code": "54"}, {"name": "DE GAULLE 3 (NEUILLY)", "longitude": 2.26099177209953, "latitude": 48.8842989293728, "address": "195 AVENUE CHARLES DE GAULLE - 92200 NEUI", "number": 22005, "city": "ENUE CHARLES DE GAULLE - 92200 NEUILLY", "zip_code": "195"}, {"name": "PORTE DE MENILMONTANT", "longitude": 2.40932246879487, "latitude": 48.8691543609174, "address": "1 rue Vidal de la Blache / Angle 78 boulevard Mortier - 75020 PA", "number": 20027, "city": "Vidal de la Blache / Angle 78 boulevard Mortier - 75020 PARIS", "zip_code": "1"}, {"name": "PIGALLE GERMAIN PILLON", "longitude": 2.336262639016585, "latitude": 48.882728090545086, "address": "FA", "number": 18042, "city": "LEVARD DE CLICHY - 75018 PARIS", "zip_code": "36"}, {"name": "FAIDHERBE CHALIGNY", "longitude": 2.38386933547444, "latitude": 48.850379753879935, "address": "223 RUE DU FAUBOURG SAINT ANTOINE - 75011 PA", "number": 11008, "city": "E DU FAUBOURG SAINT ANTOINE - 75011 PARIS", "zip_code": "223"}, {"name": "JOURDAIN", "longitude": 2.389038160847546, "latitude": 48.8755503947562, "address": "9 RUE LASSUS - 75019 PA", "number": 19038, "city": "LASSUS - 75019 PARIS", "zip_code": "9"}, {"name": "IVRY BAUDICOURT", "longitude": 2.363106073577468, "latitude": 48.824695995415006, "address": "76 AVENUE D'IVRY - 75013 PA", "number": 13037, "city": "NUE D'IVRY - 75013 PARIS", "zip_code": "76"}, {"name": "PORTE DE CHOISY", "longitude": 2.36507858638901, "latitude": 48.819941965677195, "address": "111 BOULEVARD MASSENA - 75013 PA", "number": 13040, "city": "ULEVARD MASSENA - 75013 PARIS", "zip_code": "111"}, {"name": "JASMIN", "longitude": 2.268483570651513, "latitude": 48.85286124871689, "address": "79 AV MOZART- 75016 PA", "number": 16027, "city": "MOZART- 75016 PARIS", "zip_code": "79"}, {"name": "PLACE BIENVENUE", "longitude": 2.322257377279243, "latitude": 48.84319882807092, "address": "11 RUE DE L'ARRIVEE - 75015 PA", "number": 15118, "city": " DE L'ARRIVEE - 75015 PARIS", "zip_code": "11"}, {"name": "NOTRE DAME DES CHAMPS", "longitude": 2.329337755887181, "latitude": 48.84479928858768, "address": "41 RUE NOTRE DAME DES CHAMPS - 75006 PA", "number": 6006, "city": " NOTRE DAME DES CHAMPS - 75006 PARIS", "zip_code": "41"}, {"name": "BAGNOLET-ORTEAUX", "longitude": 2.398472, "latitude": 48.8571433920909, "address": "44 BIS RUE DE BAGNOLET - 75020 PA", "number": 20015, "city": " RUE DE BAGNOLET - 75020 PARIS", "zip_code": "44"}, {"name": "SQUARE D'ANVERS", "longitude": 2.344884406212207, "latitude": 48.882633484310816, "address": "95 RUE DE DUNKERQUE - 75009 PA", "number": 9005, "city": " DE DUNKERQUE - 75009 PARIS", "zip_code": "95"}, {"name": "ROND POINT DES CHAMPS ELYSEES", "longitude": 2.310714655374236, "latitude": 48.86970884795243, "address": "2 RUE JEAN MERMOZ - 75008 PA", "number": 8031, "city": "JEAN MERMOZ - 75008 PARIS", "zip_code": "2"}, {"name": "NATION PICPUS", "longitude": 2.399868277428793, "latitude": 48.846964359503055, "address": "FA", "number": 12015, "city": "LEVARD DE PICPUS - 75012 PARIS", "zip_code": "67"}, {"name": "JOURDAN BARBOUX", "longitude": 2.326806869905884, "latitude": 48.82195530645611, "address": "7 RUE HENRI BARBOUX - 75014 PA", "number": 14120, "city": "HENRI BARBOUX - 75014 PARIS", "zip_code": "7"}, {"name": "CONDORCET", "longitude": 2.345396338986368, "latitude": 48.87983122511022, "address": "34 RUE CONDORCET - 75009 PA", "number": 9007, "city": " CONDORCET - 75009 PARIS", "zip_code": "34"}, {"name": "VICTOR MASSE", "longitude": 2.336681004295117, "latitude": 48.881149033952994, "address": "38 RUE VICTOR MASSE - 75009 PA", "number": 9019, "city": " VICTOR MASSE - 75009 PARIS", "zip_code": "38"}, {"name": "MONCLAR", "longitude": 2.308850015466539, "latitude": 48.83411714783768, "address": "33 BIS RUE SAINT AMAND - 75015 PA", "number": 15040, "city": " RUE SAINT AMAND - 75015 PARIS", "zip_code": "33"}, {"name": "LIART AMIRAL MOUCHEZ", "longitude": 2.342104214557966, "latitude": 48.82122766331853, "address": "1 RUE LIARD - 75014 PA", "number": 14013, "city": "LIARD - 75014 PARIS", "zip_code": "1"}, {"name": "NECKER (CHARENTON)", "longitude": 2.399998420132992, "latitude": 48.823963252286866, "address": "RUE NECKER/ RUE DU PORT AUX LIONS", "number": 42201, "city": "CHARENTON", "zip_code": "94220"}, {"name": "TEMPLE REPUBLIQUE", "longitude": 2.365312950780227, "latitude": 48.865745077094815, "address": "44 BD DU TEMPLE - 75011 PA", "number": 11038, "city": "DU TEMPLE - 75011 PARIS", "zip_code": "44"}, {"name": "MONTCALM", "longitude": 2.335447427689794, "latitude": 48.891877957087424, "address": "2 RUE MONTCALM - 75018 PA", "number": 18019, "city": "MONTCALM - 75018 PARIS", "zip_code": "2"}, {"name": "PORCHE POUCHET", "longitude": 2.322478477864687, "latitude": 48.898773792804256, "address": "7 PLACE ARNAUD TZANCK - 75017 PA", "number": 17008, "city": "E ARNAUD TZANCK - 75017 PARIS", "zip_code": "7"}, {"name": "PORT SOLF\u00c3\u2030RINO (STATION MOBILE)", "longitude": 2.32442, "latitude": 48.86138, "address": "QUAI ANATOLE FRANCE - PONT SOLFERINO", "number": 901, "city": "PARIS", "zip_code": "75007"}, {"name": "JAVEL", "longitude": 2.278413912593796, "latitude": 48.84629491826888, "address": "D", "number": 15064, "city": "UE EMILE ZOLA - 75015 PARIS", "zip_code": "5"}, {"name": "LAME", "longitude": 2.385478486564838, "latitude": 48.835138050689515, "address": "49 RUE GABRIEL LAME - 75012 PA", "number": 12031, "city": " GABRIEL LAME - 75012 PARIS", "zip_code": "49"}, {"name": "BOUSSINGAULT - TOLBIAC", "longitude": 2.342176808004326, "latitude": 48.82603516605852, "address": "55 RUE BOUSSINGAULT - 75013 PA", "number": 13021, "city": " BOUSSINGAULT - 75013 PARIS", "zip_code": "55"}, {"name": "PERI (SAINT OUEN)", "longitude": 2.330513564840273, "latitude": 48.90259224163092, "address": "128 AVENUE GABRIEL PERI / AVENUE DU CAPITAINE GLAMER - 93400 SAINT O", "number": 34002, "city": "ENUE GABRIEL PERI / AVENUE DU CAPITAINE GLAMER - 93400 SAINT OUEN", "zip_code": "128"}, {"name": "MONTORGUEIL RUE MONTMARTRE VERSION 2", "longitude": 2.345068440144759, "latitude": 48.865021945810085, "address": "46 RUE DE MONTMARTRE - 75002 PA", "number": 2005, "city": " DE MONTMARTRE - 75002 PARIS", "zip_code": "46"}, {"name": "MICHELIS (NEUILLY)", "longitude": 2.27740638127753, "latitude": 48.8827499154713, "address": "32 RUE DE MADELEINE MICHELIS - 92200 NEUI", "number": 22012, "city": " DE MADELEINE MICHELIS - 92200 NEUILLY", "zip_code": "32"}, {"name": "BUFFON", "longitude": 2.358912681317667, "latitude": 48.841916179825965, "address": "47 RUE BUFFON - 75005 PA", "number": 5104, "city": " BUFFON - 75005 PARIS", "zip_code": "47"}, {"name": "VINCENNES (MONTREUIL)", "longitude": 2.43736866129498, "latitude": 48.857702134021, "address": "7 BIS RUE DE VINCENNES - 93100 MONTRE", "number": 31008, "city": "RUE DE VINCENNES - 93100 MONTREUIL", "zip_code": "7"}, {"name": "BOUCICAUT", "longitude": 2.285862655943941, "latitude": 48.84214433157821, "address": "87 RUE DE LA CONVENTION - 75015 PA", "number": 15062, "city": " DE LA CONVENTION - 75015 PARIS", "zip_code": "87"}, {"name": "ECOUFFES RIVOLI", "longitude": 2.357907882135172, "latitude": 48.85579663740384, "address": "2 RUE TIRON - 75004 PA", "number": 4012, "city": "TIRON - 75004 PARIS", "zip_code": "2"}, {"name": "TURBIGO", "longitude": 2.356278447633629, "latitude": 48.86558419108518, "address": "55 RUE TURBIGO - 75003 PA", "number": 3011, "city": " TURBIGO - 75003 PARIS", "zip_code": "55"}, {"name": "RUE SAINT BLAISE", "longitude": 2.408842457406961, "latitude": 48.8569749400317, "address": "69 RUE SAINT BLAISE - 75020 PA", "number": 20017, "city": " SAINT BLAISE - 75020 PARIS", "zip_code": "69"}, {"name": "VAUVENARGUES", "longitude": 2.332199335980013, "latitude": 48.89405725132698, "address": "195 RUE CHAMPIONNET - 75018 PA", "number": 18028, "city": "E CHAMPIONNET - 75018 PARIS", "zip_code": "195"}, {"name": "GARE DE BERCY", "longitude": 2.38241, "latitude": 48.83976, "address": "GARE DE BERCY - ANGLE RUE CORBINEAU", "number": 12024, "city": "PARIS", "zip_code": "75012"}, {"name": "REPUBLIQUE FERRY", "longitude": 2.369322530407524, "latitude": 48.86651607982108, "address": "FA", "number": 11113, "city": "ULEVARD RICHARD LENOIR - 75011 PARIS", "zip_code": "140"}, {"name": "NATIONALE (BOULOGNE-BILLANCOURT)", "longitude": 2.241835191324587, "latitude": 48.827600424128306, "address": "39 RUE NATIONALE - 92100 BOULOGNE-BILLANCO", "number": 21015, "city": " NATIONALE - 92100 BOULOGNE-BILLANCOURT", "zip_code": "39"}, {"name": "JEAN FERRAT (IVRY)", "longitude": 2.37427, "latitude": 48.8185, "address": "PLACE JEAN FERRAT", "number": 42015, "city": "IVRY", "zip_code": "94200"}, {"name": "SAINT JACQUES", "longitude": 2.345015835298588, "latitude": 48.850310432924466, "address": "20 RUE SOMMERARD - 75005 PA", "number": 5002, "city": " SOMMERARD - 75005 PARIS", "zip_code": "20"}, {"name": "BELLEVILLE", "longitude": 2.376348394645978, "latitude": 48.87277815648997, "address": "8 BOULEVARD DE LA VILETTE - 75010 PA", "number": 10040, "city": "EVARD DE LA VILETTE - 75010 PARIS", "zip_code": "8"}, {"name": "AURIOL CHEVALERET", "longitude": 2.366826499627087, "latitude": 48.83484845292942, "address": "1 RUE BRUANT - 75013 PA", "number": 13018, "city": "BRUANT - 75013 PARIS", "zip_code": "1"}, {"name": "PLACE HENOCQUE VERSION 2", "longitude": 2.35433694417225, "latitude": 48.823316172177535, "address": "21 RUE DU DR LERAY ET LANDOUZY - 75013 PA", "number": 13026, "city": " DU DR LERAY ET LANDOUZY - 75013 PARIS", "zip_code": "21"}, {"name": "PLACE DES FETES", "longitude": 2.392284629788502, "latitude": 48.876468339733144, "address": "17 RUE DES FETES - 75019 PA", "number": 19028, "city": " DES FETES - 75019 PARIS", "zip_code": "17"}, {"name": "CITE RIVERIN", "longitude": 2.35872446227434, "latitude": 48.8707649818776, "address": "12 RUE CITE RIVERIN / ANGLE RUE DU CHATEAU D'EAU - 75010 PA", "number": 10008, "city": " CITE RIVERIN / ANGLE RUE DU CHATEAU D'EAU - 75010 PARIS", "zip_code": "12"}, {"name": "MAZET SAINT ANDRE DES ARTS", "longitude": 2.339113722899687, "latitude": 48.853751073467855, "address": "10 RUE ANDRE MAZET - 75006 PA", "number": 6015, "city": " ANDRE MAZET - 75006 PARIS", "zip_code": "10"}, {"name": "MINIMES (VINCENNES)", "longitude": 2.430793451133684, "latitude": 48.841486856300165, "address": "30 AVENUE DES MINIMES - 94300 VINCEN", "number": 43006, "city": "NUE DES MINIMES - 94300 VINCENNES", "zip_code": "30"}, {"name": "CHANDON", "longitude": 2.287582307043615, "latitude": 48.83797034201205, "address": "293 RUE LECOURBE - 75015 PA", "number": 15054, "city": "E LECOURBE - 75015 PARIS", "zip_code": "293"}, {"name": "CIRQUE D HIVER", "longitude": 2.367053490449912, "latitude": 48.862650300140295, "address": "PLACE PASDELOUP", "number": 11043, "city": "PARIS", "zip_code": "75011"}, {"name": "PLACE MONGE", "longitude": 2.352472437223356, "latitude": 48.84273504298964, "address": "4 RUE DOLOMIEU - 75005 PA", "number": 5024, "city": "DOLOMIEU - 75005 PARIS", "zip_code": "4"}, {"name": "LAMBERT", "longitude": 2.29514141310447, "latitude": 48.84307638694992, "address": "102 RUE DE LA CROIX NIVERT - 75015 PA", "number": 15036, "city": "E DE LA CROIX NIVERT - 75015 PARIS", "zip_code": "102"}, {"name": "MALON (GENTILLY)", "longitude": 2.341070654172592, "latitude": 48.81444017962381, "address": "FA", "number": 42504, "city": " BENOIT MALON - 94250 GENTILLY", "zip_code": "59"}, {"name": "CHERCHE MIDI", "longitude": 2.327551549210571, "latitude": 48.85024108719566, "address": "29 RUE DU CHERCHE MIDI - 75006 PA", "number": 6107, "city": " DU CHERCHE MIDI - 75006 PARIS", "zip_code": "29"}, {"name": "PLACE AIM\u00c3\u2030E MAILLART", "longitude": 2.29482820074442, "latitude": 48.88141110121936, "address": "29 RUE PIERRE DEMOURS - 75017 PA", "number": 17029, "city": " PIERRE DEMOURS - 75017 PARIS", "zip_code": "29"}, {"name": "QUAI PANHARD ET LEVASSOR", "longitude": 2.384440354604646, "latitude": 48.828369893809565, "address": "23 QUAI PANHARD ET LEVASSOR - 75013 PA", "number": 13050, "city": "I PANHARD ET LEVASSOR - 75013 PARIS", "zip_code": "23"}, {"name": "TOUDOUZE CLAUZEL", "longitude": 2.337190639271711, "latitude": 48.879505265624786, "address": "FA", "number": 9020, "city": " CLAUZEL - 75009 PARIS", "zip_code": "27"}, {"name": "GERGOVIE VERCINGETORIX", "longitude": 2.313391647113252, "latitude": 48.83425924993043, "address": "112 RUE VERCINGETORIX - 75014 PA", "number": 14029, "city": "E VERCINGETORIX - 75014 PARIS", "zip_code": "112"}, {"name": "PLACE DE ROUBAIX", "longitude": 2.351464333201903, "latitude": 48.88072668576597, "address": "39 RUE DE DUNKERQUE - 75010 PA", "number": 10029, "city": " DE DUNKERQUE - 75010 PARIS", "zip_code": "39"}, {"name": "ROCHECHOUART GERANDO", "longitude": 2.346319371627125, "latitude": 48.88291108953936, "address": "19 RUE GUERANDO - 75009 PA", "number": 9004, "city": " GUERANDO - 75009 PARIS", "zip_code": "19"}, {"name": "RECOLLETS", "longitude": 2.362498528696257, "latitude": 48.874112916506824, "address": "46 RUE LUCIE SAMPAIX - 75010 PA", "number": 10015, "city": " LUCIE SAMPAIX - 75010 PARIS", "zip_code": "46"}, {"name": "VAUGIRARD PRINCE", "longitude": 2.341040508705961, "latitude": 48.84892295818577, "address": "FA", "number": 6029, "city": "DE VAUGIRARD - 75006 PARIS", "zip_code": "1"}, {"name": "GARE DE LYON", "longitude": 2.3726498446286, "latitude": 48.8455150897939, "address": "GARE DE LYON", "number": 12151, "city": "PARIS", "zip_code": "75012"}, {"name": "GARE DE REUILLY", "longitude": 2.397249990597384, "latitude": 48.842577100515385, "address": "58 RUE DE LA GARE DE REUILLY - 75012 PA", "number": 12019, "city": " DE LA GARE DE REUILLY - 75012 PARIS", "zip_code": "58"}, {"name": "PLACE DU DOCTEUR YERSIN", "longitude": 2.372209309645734, "latitude": 48.820226792619714, "address": "FA", "number": 13116, "city": "UE DE LA PORTE D'IVRY - 75013 PARIS", "zip_code": "5"}, {"name": "MANIN SECRETAN", "longitude": 2.378637021920256, "latitude": 48.87927519569598, "address": "31 RUE MANIN - 75019 PA", "number": 19114, "city": " MANIN - 75019 PARIS", "zip_code": "31"}, {"name": "MIROMESNIL", "longitude": 2.315876308346374, "latitude": 48.873760472140056, "address": "39 RUE DE MIROMESNIL - 75008 PA", "number": 8025, "city": " DE MIROMESNIL - 75008 PARIS", "zip_code": "39"}, {"name": "DAGUERRE GASSENDI", "longitude": 2.328290822051698, "latitude": 48.83568044417256, "address": "31 RUE FRODEVAUX - 75014 PA", "number": 14033, "city": " FRODEVAUX - 75014 PARIS", "zip_code": "31"}, {"name": "MONTROSIER (NEUILLY)", "longitude": 2.278535717122779, "latitude": 48.87944136963256, "address": "7 RUE MONTROSIER - 92200 NEUI", "number": 22011, "city": "MONTROSIER - 92200 NEUILLY", "zip_code": "7"}, {"name": "PORTE DOREE", "longitude": 2.40745551592605, "latitude": 48.835545043575955, "address": "1 PLACE EDOUARD RENARD - 75012 PA", "number": 12032, "city": "E EDOUARD RENARD - 75012 PARIS", "zip_code": "1"}, {"name": "OCTAVE FEUILLET", "longitude": 2.27312852713658, "latitude": 48.8609983661382, "address": "4-6 RUE OCTAVE FEUILLET - 75016 PA", "number": 16110, "city": "E OCTAVE FEUILLET - 75016 PARIS", "zip_code": "4"}, {"name": "MIRABEAU", "longitude": 2.273556264965371, "latitude": 48.84766571002937, "address": "4 PLACE DE BARCELONE - 75016 PA", "number": 16030, "city": "E DE BARCELONE - 75016 PARIS", "zip_code": "4"}, {"name": "PORTE DE VERSAILLES", "longitude": 2.287122261982559, "latitude": 48.83217944426036, "address": "2 AVENUE ERNEST RENAN - 75015 PA", "number": 15049, "city": "UE ERNEST RENAN - 75015 PARIS", "zip_code": "2"}, {"name": "FARMAN", "longitude": 2.271396472461431, "latitude": 48.83373383017729, "address": "61 RUE HENRY FARMAN - 75015 PA", "number": 15042, "city": " HENRY FARMAN - 75015 PARIS", "zip_code": "61"}, {"name": "LALLY TOLLENDAL", "longitude": 2.37469338894231, "latitude": 48.88270064422199, "address": "5 RUE LALLY TOLLENDAL - 75019 PA", "number": 19012, "city": "LALLY TOLLENDAL - 75019 PARIS", "zip_code": "5"}, {"name": "SEINE (BOULOGNE-BILLANCOURT)", "longitude": 2.250657739639016, "latitude": 48.82824349415854, "address": "FACE ", "number": 21018, "city": " DE LA SEINE - 92100 BOULOGNE-BILLANCOURT", "zip_code": "13"}, {"name": "LECOURBE", "longitude": 2.291540507948998, "latitude": 48.83922209776229, "address": "250 RUE LECOURBE - 75015 PA", "number": 15053, "city": "E LECOURBE - 75015 PARIS", "zip_code": "250"}, {"name": "DAMREMONT ORDENER", "longitude": 2.336266523912805, "latitude": 48.893400392981874, "address": "102 RUE DAMREMONT - 75018 PA", "number": 18027, "city": "E DAMREMONT - 75018 PARIS", "zip_code": "102"}, {"name": "MEZIERES RENNES", "longitude": 2.330446820277252, "latitude": 48.850297010217595, "address": "16 RUE DE MEZIERES - 75006 PA", "number": 6103, "city": " DE MEZIERES - 75006 PARIS", "zip_code": "16"}, {"name": "BROSSOLETTE (IVRY)", "longitude": 2.381460319184223, "latitude": 48.816929720561234, "address": "23 RUE PIERRE BROSSOLETTE - 94200 I", "number": 42006, "city": " PIERRE BROSSOLETTE - 94200 IVRY", "zip_code": "23"}, {"name": "PORTE DE CLICHY FRAGONARD", "longitude": 2.314678001115381, "latitude": 48.894151383293696, "address": "4 RUE FRAGONARD - 75017 PA", "number": 17011, "city": "FRAGONARD - 75017 PARIS", "zip_code": "4"}, {"name": "SAINT MICHEL DANTON", "longitude": 2.342657392891206, "latitude": 48.85293041059132, "address": "2 RUE DANTON - 75006 PA", "number": 6020, "city": "DANTON - 75006 PARIS", "zip_code": "2"}, {"name": "ALEXANDRE DUMAS", "longitude": 2.396093495321842, "latitude": 48.854176040414856, "address": "FA", "number": 11017, "city": "LEVARD DE CHARONNE - 75011 PARIS", "zip_code": "77"}, {"name": "DENFERT-ROCHEREAU CASSINI", "longitude": 2.335983030466524, "latitude": 48.837549292197465, "address": "18 RUE CASSINI - 75014 PA", "number": 14111, "city": " CASSINI - 75014 PARIS", "zip_code": "18"}, {"name": "METALLOS", "longitude": 2.377885515684799, "latitude": 48.86793796309799, "address": "81 BIS RUE JP TIMBAUD - 75011 PA", "number": 11032, "city": " RUE JP TIMBAUD - 75011 PARIS", "zip_code": "81"}, {"name": "PETIT (CLICHY)", "longitude": 2.29662648341284, "latitude": 48.8993483537726, "address": "2 RUE PETIT - 92110 CLI", "number": 21113, "city": "PETIT - 92110 CLICHY", "zip_code": "2"}, {"name": "RICHARD LENOIR VOLTAIRE NORD", "longitude": 2.37120861796012, "latitude": 48.86343198963591, "address": "FA", "number": 11044, "city": "ULEVARD RICHARD LENOIR - 75011 PARIS", "zip_code": "104"}, {"name": "CHEMIN VERT BEAUMARCHAIS", "longitude": 2.367832659296124, "latitude": 48.85804405694242, "address": "69 BOULEVARD BEAUMARCHAIS - 75003 PA", "number": 3001, "city": "LEVARD BEAUMARCHAIS - 75003 PARIS", "zip_code": "69"}, {"name": "RASSELINS", "longitude": 2.409615362775532, "latitude": 48.85352868594103, "address": "2 RUE DES RASSELINS - 75020 PA", "number": 20133, "city": "DES RASSELINS - 75020 PARIS", "zip_code": "2"}, {"name": "BOUTROUX VITRY", "longitude": 2.377738433657617, "latitude": 48.822632842232245, "address": "1 AVENUE BOUTROUX - 75013 PA", "number": 13047, "city": "UE BOUTROUX - 75013 PARIS", "zip_code": "1"}, {"name": "MAAR (SAINT OUEN)", "longitude": 2.322171248688672, "latitude": 48.905269629379745, "address": "RUE DORA MAAR / GARE RER", "number": 34009, "city": "SAINT OUEN", "zip_code": "93400"}, {"name": "BASTILLE RICHARD LENOIR", "longitude": 2.369701488217501, "latitude": 48.85384822621097, "address": "2 BOULEVARD RICHARD LENOIR - 75011 PA", "number": 11001, "city": "EVARD RICHARD LENOIR - 75011 PARIS", "zip_code": "2"}, {"name": "ARCHIVES PASTOURELLE", "longitude": 2.359447031946381, "latitude": 48.86240121191442, "address": "67 RUE DES ARCHIVES - 75003 PA", "number": 3007, "city": " DES ARCHIVES - 75003 PARIS", "zip_code": "67"}, {"name": "SQUARE MONTHOLON", "longitude": 2.345785516803243, "latitude": 48.87660117136262, "address": "26 RUE MONTHOLON - 75009 PA", "number": 9009, "city": " MONTHOLON - 75009 PARIS", "zip_code": "26"}, {"name": "CONCORDE/BERGES DE SEINE (STATION MOBILE)", "longitude": 2.31669, "latitude": 48.86314, "address": "QUAI D'ORSAY - CONCORDE", "number": 905, "city": "PARIS", "zip_code": "75007"}, {"name": "VAUGIRARD", "longitude": 2.31829155159271, "latitude": 48.841325259808, "address": "25-31 BOULEVARD DE VAUGIRARD - 75015 PA", "number": 15115, "city": "BOULEVARD DE VAUGIRARD - 75015 PARIS", "zip_code": "25"}, {"name": "MUTUALITE", "longitude": 2.350169939020645, "latitude": 48.84838576471672, "address": "20 RUE MONGE - 75005 PA", "number": 5018, "city": " MONGE - 75005 PARIS", "zip_code": "20"}, {"name": "DELIZY (PANTIN)", "longitude": 2.409087652725976, "latitude": 48.89633193166097, "address": "FACE ", "number": 35006, "city": " DELIZY - 93500 PANTIN", "zip_code": "23"}, {"name": "ATHENES CLICHY", "longitude": 2.32956021945824, "latitude": 48.878113787876, "address": "4 RUE D'ATHENES - 75009 PA", "number": 9036, "city": "D'ATHENES - 75009 PARIS", "zip_code": "4"}, {"name": "BEAUMARCHAIS", "longitude": 2.368429069929045, "latitude": 48.855501357701705, "address": "27 BOULEVARD BEAUMARCHAIS - 75004 PA", "number": 4107, "city": "LEVARD BEAUMARCHAIS - 75004 PARIS", "zip_code": "27"}, {"name": "BATIGNOLLES", "longitude": 2.323834749088381, "latitude": 48.88310390458221, "address": "1 RUE DES BATIGNOLLES - 75017 PA", "number": 17050, "city": "DES BATIGNOLLES - 75017 PARIS", "zip_code": "1"}, {"name": "ULM ERASME", "longitude": 2.344596649931604, "latitude": 48.8425479496716, "address": "13 RUE ERASME - 75005 PA", "number": 5013, "city": " ERASME - 75005 PARIS", "zip_code": "13"}, {"name": "PORTE DES LILAS", "longitude": 2.4059603311549, "latitude": 48.87541242186098, "address": "FA", "number": 20110, "city": "ENUE GAMBETTA - 75020 PARIS", "zip_code": "241"}, {"name": "PORT ROYAL", "longitude": 2.344664043426302, "latitude": 48.83772792097816, "address": "51 BOULEVARD PORT ROYAL - 75013 PA", "number": 13001, "city": "LEVARD PORT ROYAL - 75013 PARIS", "zip_code": "51"}, {"name": "SAINT MARCEL", "longitude": 2.360460336476805, "latitude": 48.83772768745433, "address": "89 BOULEVARD DE L'HOPITAL - 75013 PA", "number": 13103, "city": "LEVARD DE L'HOPITAL - 75013 PARIS", "zip_code": "89"}, {"name": "MONCEAU", "longitude": 2.30951238050775, "latitude": 48.881161983577115, "address": "4 RUE DE THANN - 75017 PA", "number": 17018, "city": "DE THANN - 75017 PARIS", "zip_code": "4"}, {"name": "HORNET (BAGNOLET)", "longitude": 2.427933579778934, "latitude": 48.873929200033544, "address": "FACE ", "number": 31704, "city": "JEANNE HORNET - 93170 BAGNOLET", "zip_code": "1"}, {"name": "HOTEL DE VILLE", "longitude": 2.353976273618783, "latitude": 48.857203787697095, "address": "1 RUE DES ARCHIVES - 75004 PA", "number": 4103, "city": "DES ARCHIVES - 75004 PARIS", "zip_code": "1"}, {"name": "GRENIER (BOULOGNE-BILLANCOURT)", "longitude": 2.248821391087721, "latitude": 48.82584693469992, "address": "4 AVENUE PIERRE GRENIER - 92100 BOULOGNE-BILLANCO", "number": 21013, "city": "UE PIERRE GRENIER - 92100 BOULOGNE-BILLANCOURT", "zip_code": "4"}, {"name": "MONTREUIL VOLTAIRE", "longitude": 2.393075558274471, "latitude": 48.85050701184191, "address": "93 RUE DE MONTREUIL - 75011 PA", "number": 11012, "city": " DE MONTREUIL - 75011 PARIS", "zip_code": "93"}, {"name": "LANDY (AUBERVILLIERS)", "longitude": 2.376424009514086, "latitude": 48.915156182813234, "address": "FA", "number": 33012, "city": "DU LANDY - 93300 AUBERVILLIERS", "zip_code": "2"}, {"name": "JAURES 1 (PANTIN)", "longitude": 2.399325633305226, "latitude": 48.91013709505388, "address": "168 AVENUE JEAN JAURES - 93500 PAN", "number": 35001, "city": "ENUE JEAN JAURES - 93500 PANTIN", "zip_code": "168"}, {"name": "MARTINIE (VANVES)", "longitude": 2.29130063072414, "latitude": 48.821049923459526, "address": "5-7 AVENUE MARCEL MARTINIE - 92170 VAN", "number": 21703, "city": "ENUE MARCEL MARTINIE - 92170 VANVES", "zip_code": "5"}, {"name": "BACHAUMONT", "longitude": 2.345463652702569, "latitude": 48.866067150086806, "address": "14 RUE BACHAUMONT - 75002 PA", "number": 2101, "city": " BACHAUMONT - 75002 PARIS", "zip_code": "14"}, {"name": "COURCELLES", "longitude": 2.303467406687128, "latitude": 48.8794303755264, "address": "2 RUE DE CHAZELLES - 75017 PA", "number": 17025, "city": "DE CHAZELLES - 75017 PARIS", "zip_code": "2"}, {"name": "RASPAIL VARENNE", "longitude": 2.326319806384382, "latitude": 48.853261668611665, "address": "FA", "number": 7004, "city": "LEVARD RASPAIL - 75007 PARIS", "zip_code": "28"}, {"name": "AMANDIERS", "longitude": 2.389350412433471, "latitude": 48.86629510600211, "address": "55 RUE DES CENDRIERS - 75020 PA", "number": 20032, "city": " DES CENDRIERS - 75020 PARIS", "zip_code": "55"}, {"name": "TOUR D'AUVERGNE", "longitude": 2.34369843072095, "latitude": 48.87916177777549, "address": "24 RUE D'AUVERGNE - 75009 PA", "number": 9008, "city": " D'AUVERGNE - 75009 PARIS", "zip_code": "24"}, {"name": "VORGES (VINCENNES)", "longitude": 2.439892899386235, "latitude": 48.848257752729346, "address": "4 AVENUE VORGES - 94300 VINCEN", "number": 43007, "city": "UE VORGES - 94300 VINCENNES", "zip_code": "4"}, {"name": "GARE DE LYON VAN GOGH", "longitude": 2.371691677977748, "latitude": 48.84419240789483, "address": "15 RUE VAN GOGH - 75012 PA", "number": 12006, "city": " VAN GOGH - 75012 PARIS", "zip_code": "15"}, {"name": "D'ORVES (MONTROUGE)", "longitude": 2.320886790760933, "latitude": 48.815388220397274, "address": "FA", "number": 21204, "city": " D'ESTIENNES D'ORVES / PISCINE - 92120 MONTROUGE", "zip_code": "44"}, {"name": "REILLE MONTSOURIS", "longitude": 2.335999677300567, "latitude": 48.82476710259696, "address": "61 AVENUE RENE COTY - 75014 PA", "number": 14016, "city": "NUE RENE COTY - 75014 PARIS", "zip_code": "61"}, {"name": "REPUBLIQUE (MONTREUIL)", "longitude": 2.419307088753658, "latitude": 48.85281419134583, "address": "38 RUE DE LA REPUBLIQUE - 93100 MONTRE", "number": 31002, "city": " DE LA REPUBLIQUE - 93100 MONTREUIL", "zip_code": "38"}, {"name": "BLANC", "longitude": 2.278274193061826, "latitude": 48.83863387153602, "address": "88 RUE BALARD - 75015 PA", "number": 15070, "city": " BALARD - 75015 PARIS", "zip_code": "88"}, {"name": "COURCELLES - DEMOURES", "longitude": 2.29858466343129, "latitude": 48.883769733273496, "address": "172 RUE DE COURCELLES - 75017 PA", "number": 17047, "city": "E DE COURCELLES - 75017 PARIS", "zip_code": "172"}, {"name": "CARPEAUX", "longitude": 2.330820396477741, "latitude": 48.890747210171405, "address": "13 RUE CARPEAUX - 75018 PA", "number": 18018, "city": " CARPEAUX - 75018 PARIS", "zip_code": "13"}, {"name": "ARCHIVES BLANCS MANTEAUX", "longitude": 2.35592748653501, "latitude": 48.85940271964358, "address": "29 RUE DES BLANCS MANTEAUX - 75004 PA", "number": 4014, "city": " DES BLANCS MANTEAUX - 75004 PARIS", "zip_code": "29"}, {"name": "SUFFREN F\u00c3\u2030D\u00c3\u2030RATION", "longitude": 2.297876431467921, "latitude": 48.85276674352813, "address": "84 RUE DE LA FEDERATION - 75015 PA", "number": 15105, "city": " DE LA FEDERATION - 75015 PARIS", "zip_code": "84"}, {"name": "BUISSON SAINT LOUIS", "longitude": 2.372203224856393, "latitude": 48.87182588992616, "address": "2 RUE DU BUISSON SAINT LOUIS - 75010 PA", "number": 10024, "city": "DU BUISSON SAINT LOUIS - 75010 PARIS", "zip_code": "2"}, {"name": "EMGP NORD (SAINT DENIS)", "longitude": 2.364997877155126, "latitude": 48.905745467654526, "address": "EMGP PARKING ENTREE NORD", "number": 32008, "city": "SAINT DENIS", "zip_code": "93200"}, {"name": "HOCHE ALBRECHT", "longitude": 2.301303138307601, "latitude": 48.87614039826388, "address": "10 AVENUE BERTHIER ALBRECHT - 75008 PA", "number": 8054, "city": "NUE BERTHIER ALBRECHT - 75008 PARIS", "zip_code": "10"}, {"name": "ASSEMBLEE NATIONALE", "longitude": 2.320131276903925, "latitude": 48.86137389094257, "address": "FA", "number": 7009, "city": "E DE LILLE - 75007 PARIS", "zip_code": "119"}, {"name": "PLACE ANDRE MALRAUX", "longitude": 2.335599603893845, "latitude": 48.86397965515107, "address": "2 PLACE ANDRE MALRAUX - 75001 PA", "number": 1015, "city": "E ANDRE MALRAUX - 75001 PARIS", "zip_code": "2"}, {"name": "LA FOURCHE RUE DE LA CONDAMINE", "longitude": 2.324400445437174, "latitude": 48.88790134553051, "address": "4 RUE DE LA CONDAMINE - 75017 PA", "number": 17002, "city": "DE LA CONDAMINE - 75017 PARIS", "zip_code": "4"}, {"name": "SIMPLON", "longitude": 2.347517966604574, "latitude": 48.89373427753593, "address": "1 RUE JOSEPH DIJON - 75018 PA", "number": 18030, "city": "JOSEPH DIJON - 75018 PARIS", "zip_code": "1"}, {"name": "HORTENSIAS (LES LILAS)", "longitude": 2.42327263606036, "latitude": 48.88217309420464, "address": "1 ALLEE DES HORTENSIAS - 93260 LES LI", "number": 32605, "city": "E DES HORTENSIAS - 93260 LES LILAS", "zip_code": "1"}, {"name": "TOLBIAC ALBERT", "longitude": 2.370530563855483, "latitude": 48.82783803264948, "address": "FA", "number": 13045, "city": "JEAN COLLY - 75013 PARIS", "zip_code": "1"}, {"name": "HAUSSMANN COURCELLES", "longitude": 2.308314064189137, "latitude": 48.874810390028195, "address": "49 RUE DE BERRI - 75008 PA", "number": 8034, "city": " DE BERRI - 75008 PARIS", "zip_code": "49"}, {"name": "QUATRE SEPTEMBRE", "longitude": 2.3360394555421, "latitude": 48.869969733968915, "address": "10 RUE DE CHOISEUL - 75002 PA", "number": 2012, "city": " DE CHOISEUL - 75002 PARIS", "zip_code": "10"}, {"name": "PORT ROYAL", "longitude": 2.337296889737942, "latitude": 48.8401089566606, "address": "FA", "number": 5029, "city": "NUE GEORGES BERNANOS - 75005 PARIS", "zip_code": "41"}, {"name": "MARAICHERS", "longitude": 2.405871044529538, "latitude": 48.853246898211985, "address": "73 RUE DES PYRENEES - 75020 PA", "number": 20008, "city": " DES PYRENEES - 75020 PARIS", "zip_code": "73"}, {"name": "PLACE SAINT FERDINAND", "longitude": 2.288518047864942, "latitude": 48.87815529789739, "address": "26 RUE SAINT FERDINAND - 75017 PA", "number": 17039, "city": " SAINT FERDINAND - 75017 PARIS", "zip_code": "26"}, {"name": "BOUCICAUT FAURE", "longitude": 2.288386600849503, "latitude": 48.841249336041045, "address": "41 AVENUE FELIX FAURE - 75015 PA", "number": 15069, "city": "NUE FELIX FAURE - 75015 PARIS", "zip_code": "41"}, {"name": "GOBELINS", "longitude": 2.351433329767636, "latitude": 48.83712603861059, "address": "22 AVENUE DES GOBELINS - 75005 PA", "number": 5027, "city": "NUE DES GOBELINS - 75005 PARIS", "zip_code": "22"}, {"name": "ST MANDE NETTER", "longitude": 2.405099826323643, "latitude": 48.84463462629767, "address": "82 AVENUE SAINT MANDE - 75012 PA", "number": 12017, "city": "NUE SAINT MANDE - 75012 PARIS", "zip_code": "82"}, {"name": "VAILLANT (PANTIN)", "longitude": 2.393255829334146, "latitude": 48.902691617981425, "address": "ANGLE RUE GENERAL GOSSERAND ET AVENUE EDOUARD VAILLANT", "number": 35003, "city": "PANTIN", "zip_code": "93500"}, {"name": "HAIES REUNION", "longitude": 2.402426162238911, "latitude": 48.85386896766491, "address": "53 RUE DES HAIES - 75020 PA", "number": 20116, "city": " DES HAIES - 75020 PARIS", "zip_code": "53"}, {"name": "HERBERT", "longitude": 2.363429016279767, "latitude": 48.89284571116732, "address": "85 RUE PAJOL - 75018 PA", "number": 18011, "city": " PAJOL - 75018 PARIS", "zip_code": "85"}, {"name": "ARAGO CORDELIERE - VERSION 2", "longitude": 2.348572461702221, "latitude": 48.83548071896613, "address": "2 RUE DES CORDELIERES - 75013 PA", "number": 13005, "city": "DES CORDELIERES - 75013 PARIS", "zip_code": "2"}, {"name": "DODU", "longitude": 2.370071706985146, "latitude": 48.87285913900304, "address": "N", "number": 10032, "city": "RUE CLAUDE VELLEFAUX- 75010 PARIS", "zip_code": "12"}, {"name": "GROULT", "longitude": 2.295464906515111, "latitude": 48.84041618840877, "address": "202 RUE LECOURBE - 75015 PA", "number": 15037, "city": "E LECOURBE - 75015 PARIS", "zip_code": "202"}, {"name": "MORICE 2 (CLICHY)", "longitude": 2.308569535028556, "latitude": 48.90066034942664, "address": "2-4 RUE MORICE - 92110 CLI", "number": 21106, "city": "E MORICE - 92110 CLICHY", "zip_code": "2"}, {"name": "TERNES COURCELLES", "longitude": 2.299296003861458, "latitude": 48.87818887641853, "address": "87 BD COURCELLES - 75008 PA", "number": 8055, "city": "COURCELLES - 75008 PARIS", "zip_code": "87"}, {"name": "MARCHE AUX FLEURS", "longitude": 2.347356447642631, "latitude": 48.85525336084426, "address": "PLACE LOUIS LEPINE", "number": 4002, "city": "PARIS", "zip_code": "75004"}, {"name": "LINOIS", "longitude": 2.284380633700994, "latitude": 48.84804578628324, "address": "66 RUE EMERIAU - 75015 PA", "number": 15030, "city": " EMERIAU - 75015 PARIS", "zip_code": "66"}, {"name": "CHARONNE", "longitude": 2.383072452374457, "latitude": 48.85631717803066, "address": "1 RUE DE BELFORT - 75011 PA", "number": 11020, "city": "DE BELFORT - 75011 PARIS", "zip_code": "1"}, {"name": "CITROEN", "longitude": 2.278018571567725, "latitude": 48.84071436444365, "address": "RUE BALARD", "number": 15059, "city": "PARIS", "zip_code": "75015"}, {"name": "PLACE DUNANT", "longitude": 2.301123191744092, "latitude": 48.87040913507474, "address": "39 AVENUE GEORGE V - 75008 PA", "number": 8549, "city": "NUE GEORGE V - 75008 PARIS", "zip_code": "39"}, {"name": "SELLIER (SURESNES)", "longitude": 2.225998484960623, "latitude": 48.867565806130166, "address": "RUE DE SAINT CLOUD / BOULEVARD HENRI SELLIER", "number": 21501, "city": "SURESNES", "zip_code": "92150"}, {"name": "ALESIA SARRETTE", "longitude": 2.331729378994153, "latitude": 48.827525292006904, "address": "6 RUE SARRETTE - 75014 PA", "number": 14011, "city": "SARRETTE - 75014 PARIS", "zip_code": "6"}, {"name": "MARIGNAN", "longitude": 2.306620834902348, "latitude": 48.8696161948985, "address": "24 RUE DE MARIGNAN - 75008 PA", "number": 8013, "city": " DE MARIGNAN - 75008 PARIS", "zip_code": "24"}, {"name": "PARIS 1 (VINCENNES)", "longitude": 2.420247340474637, "latitude": 48.84633805388875, "address": "168 AVENUE DE PARIS - 94300 VINCEN", "number": 43001, "city": "ENUE DE PARIS - 94300 VINCENNES", "zip_code": "168"}, {"name": "PLACE MONGOLFIER (SAINT MAURICE)", "longitude": 2.459239414806482, "latitude": 48.815050006197445, "address": "PLACE MONTGOLFIER", "number": 44101, "city": "SAINT MAURICE", "zip_code": "94410"}, {"name": "ETIENNE MARCEL", "longitude": 2.347702021141098, "latitude": 48.86356704711952, "address": "2 RUE DE TURBIGO - 75001 PA", "number": 1007, "city": "DE TURBIGO - 75001 PARIS", "zip_code": "2"}, {"name": "FRANCOIS 1ER LINCOLN", "longitude": 2.302426218841562, "latitude": 48.86951797934417, "address": "56 RUE FRANCOIS 1ER - 75008 PA", "number": 8105, "city": " FRANCOIS 1ER - 75008 PARIS", "zip_code": "56"}, {"name": "PORTE DE SAINT CLOUD", "longitude": 2.257972572706903, "latitude": 48.837555260014625, "address": "120 BOULEVARD MURAT - 75016 PA", "number": 16042, "city": "ULEVARD MURAT - 75016 PARIS", "zip_code": "120"}, {"name": "BARBES MARCADET", "longitude": 2.349057392968696, "latitude": 48.89045112096476, "address": "57 RUE MARCADET - 75018 PA", "number": 18022, "city": " MARCADET - 75018 PARIS", "zip_code": "57"}, {"name": "VALITON (CLICHY)", "longitude": 2.297840007374352, "latitude": 48.90249245151852, "address": "4 RUE DE VALITON - 92110 CLI", "number": 21101, "city": "DE VALITON - 92110 CLICHY", "zip_code": "4"}, {"name": "DAREAU", "longitude": 2.336146557204349, "latitude": 48.830723214583635, "address": "34 RUE DAREAU - 75014 PA", "number": 14125, "city": " DAREAU - 75014 PARIS", "zip_code": "34"}, {"name": "CIT\u00c3\u2030 UNIVERSITAIRE", "longitude": 2.316573329316086, "latitude": 48.823923168544646, "address": "AVENUE MAURICE D'OCAGNE", "number": 14115, "city": "PARIS", "zip_code": "75014"}, {"name": "LEGENDRE AVENUE DE CLICHY", "longitude": 2.322528975094376, "latitude": 48.88896161855884, "address": "130 RUE LEGENDRE - 75017 PA", "number": 17004, "city": "E LEGENDRE - 75017 PARIS", "zip_code": "130"}, {"name": "NAVIER", "longitude": 2.322727367054828, "latitude": 48.89591411750011, "address": "FA", "number": 17007, "city": " NAVIER - 75017 PARIS", "zip_code": "57"}, {"name": "REIMS", "longitude": 2.300144659954865, "latitude": 48.891834448210986, "address": "6 BOULEVARD DE REIMS - 75017 PA", "number": 17116, "city": "EVARD DE REIMS - 75017 PARIS", "zip_code": "6"}, {"name": "CAUMARTIN PROVENCE", "longitude": 2.327778690118609, "latitude": 48.874179024030234, "address": "115 rue de provence - 75009 PA", "number": 9104, "city": "e de provence - 75009 PARIS", "zip_code": "115"}, {"name": "ROME SAINT LAZARE", "longitude": 2.322884365751902, "latitude": 48.875353174464706, "address": "1 RUE JOSEPH SANSBOEUF - 75008 PA", "number": 8008, "city": "JOSEPH SANSBOEUF - 75008 PARIS", "zip_code": "1"}, {"name": "RUE DE SEVIGNE", "longitude": 2.362897420229539, "latitude": 48.856954148055344, "address": "36 RUE DE SEVIGNE - 75003 PA", "number": 3013, "city": " DE SEVIGNE - 75003 PARIS", "zip_code": "36"}, {"name": "BOBILLOT VERLAINE", "longitude": 2.353034582951421, "latitude": 48.82860289084512, "address": "30 RUE BOBILLOT - 75013 PA", "number": 13023, "city": " BOBILLOT - 75013 PARIS", "zip_code": "30"}, {"name": "FONTENAY (VINCENNES)", "longitude": 2.444690887827985, "latitude": 48.84779066448261, "address": "12 RUE DE FONTENAY - 94300 VINCEN", "number": 43008, "city": " DE FONTENAY - 94300 VINCENNES", "zip_code": "12"}, {"name": "PYRENEES VITRUVE", "longitude": 2.404425625176959, "latitude": 48.85712940035504, "address": "114 BIS RUE DES PYRENEES - 75020 PA", "number": 20016, "city": "S RUE DES PYRENEES - 75020 PARIS", "zip_code": "114"}, {"name": "TARDIEU", "longitude": 2.341879802310627, "latitude": 48.88416326647457, "address": "8 RUE TARDIEU - 75018 PA", "number": 18005, "city": "TARDIEU - 75018 PARIS", "zip_code": "8"}, {"name": "STADE DIDOT", "longitude": 2.310670653467625, "latitude": 48.825325870060475, "address": "FA", "number": 14106, "city": "NUE MARC SANGNIER - 75014 PARIS", "zip_code": "58"}, {"name": "NOISY LE SEC", "longitude": 2.413239879550039, "latitude": 48.873338225236466, "address": "1 RUE EVARISTE GALOIS - 75020 PA", "number": 20120, "city": "EVARISTE GALOIS - 75020 PARIS", "zip_code": "1"}, {"name": " PALAIS DES SPORTS", "longitude": 2.28548042091786, "latitude": 48.8335736182304, "address": "42 BOULEVARD VICTOR - 75015 PA", "number": 15107, "city": "LEVARD VICTOR - 75015 PARIS", "zip_code": "42"}, {"name": "LECOURBE VOLONTAIRE", "longitude": 2.306558615574665, "latitude": 48.843542735006295, "address": "D", "number": 15013, "city": "DES VOLONTAIRES - 75015 PARIS", "zip_code": "1"}, {"name": "JOINEAU (PRE SAINT GERVAIS)", "longitude": 2.403240318366616, "latitude": 48.883620233843736, "address": "RUE ANDRE JOINEAU / PLACE ANATOLE FRANCE", "number": 33104, "city": "LE PRE SAINT GERVAIS", "zip_code": "93310"}, {"name": "VILLAGE SAINT PAUL", "longitude": 2.360878343431665, "latitude": 48.852725972189546, "address": "6 RUE SAINT PAUL - 75004 PA", "number": 4009, "city": "SAINT PAUL - 75004 PARIS", "zip_code": "6"}, {"name": "PORTE D'AUTEUIL", "longitude": 2.260659826137633, "latitude": 48.84795020779427, "address": "76 RUE D'AUTEUIL - 75016 PA", "number": 16034, "city": " D'AUTEUIL - 75016 PARIS", "zip_code": "76"}, {"name": "TRINITE", "longitude": 2.332762380011633, "latitude": 48.87685932729332, "address": "62 RUE SAINT LAZARE - 75009 PA", "number": 9029, "city": " SAINT LAZARE - 75009 PARIS", "zip_code": "62"}, {"name": "BUTTE AUX CAILLES", "longitude": 2.34906350669476, "latitude": 48.827564379878744, "address": "27 ET 36 RUE DE LA BUTTE AUX CAILLES - 75013 PA", "number": 13022, "city": "36 RUE DE LA BUTTE AUX CAILLES - 75013 PARIS", "zip_code": "27"}, {"name": "HARPIGNIES", "longitude": 2.409942553877677, "latitude": 48.85862166935013, "address": "2 RUE HARPIGNIES- 75020 PA", "number": 20018, "city": "HARPIGNIES- 75020 PARIS", "zip_code": "2"}, {"name": "GARE SAINT LAZARE - COUR DU HAVRE", "longitude": 2.32668, "latitude": 48.87572, "address": "Cour du Havre - Face ", "number": 8002, "city": " d'Amsterdam - 75008 PARIS", "zip_code": "2"}, {"name": "GEORGE V", "longitude": 2.301274609316824, "latitude": 48.868165940558264, "address": "28 AVENUE GEORGE V - 75008 PA", "number": 8047, "city": "NUE GEORGE V - 75008 PARIS", "zip_code": "28"}, {"name": "FELIX (AUBERVILLIERS)", "longitude": 2.378838474064149, "latitude": 48.907885757266726, "address": "120 BOULEVARD FELIX FAURE - 93300 AUBERVILLI", "number": 33009, "city": "ULEVARD FELIX FAURE - 93300 AUBERVILLIERS", "zip_code": "120"}, {"name": "OBERKAMPF", "longitude": 2.369261438255258, "latitude": 48.8646494198968, "address": "1 RUE DU GRAND PRIEURE - 75011 PA", "number": 11042, "city": "DU GRAND PRIEURE - 75011 PARIS", "zip_code": "1"}, {"name": "PASTEUR (VANVES)", "longitude": 2.292500331456548, "latitude": 48.82509932921558, "address": "9 AVENUE PASTEUR ANGLE CARREFOUR ALBERT LEGRIS - 92170 Van", "number": 21707, "city": "UE PASTEUR ANGLE CARREFOUR ALBERT LEGRIS - 92170 Vanves", "zip_code": "9"}, {"name": "DANTZIG", "longitude": 2.299282641599619, "latitude": 48.83317977055646, "address": "FACE ", "number": 15047, "city": " MORILLONS - 75015 PARIS", "zip_code": "37"}, {"name": "IVRY BRUNESEAU", "longitude": 2.388580678853776, "latitude": 48.824952872870355, "address": "RUE BRUNESEAU", "number": 13121, "city": "PARIS", "zip_code": "75013"}, {"name": "DUROC", "longitude": 2.316183886729462, "latitude": 48.84776985682885, "address": "63 BOULEVARD DES INVALIDES - 75007 PA", "number": 7001, "city": "LEVARD DES INVALIDES - 75007 PARIS", "zip_code": "63"}, {"name": "CHARLES VALLIN", "longitude": 2.301865968384287, "latitude": 48.836058393856256, "address": "133 RUE DE L'ABBE GROULT - 75015 PA", "number": 15039, "city": "E DE L'ABBE GROULT - 75015 PARIS", "zip_code": "133"}, {"name": "HOCHE", "longitude": 2.29743857720451, "latitude": 48.87494475810723, "address": "62 AVENUE HOCHE - 75008 PA", "number": 8057, "city": "NUE HOCHE - 75008 PARIS", "zip_code": "62"}, {"name": "INSTITUT", "longitude": 2.335831353037739, "latitude": 48.85761567856468, "address": "5 QUAI MALAQAIS - 75006 PA", "number": 6001, "city": " MALAQAIS - 75006 PARIS", "zip_code": "5"}, {"name": "REPUBLIQUE PIERRE LEVEE", "longitude": 2.371097448471508, "latitude": 48.866331347902545, "address": "1 RUE DE LA PIERRE LEVEE - 75011 PA", "number": 11109, "city": "DE LA PIERRE LEVEE - 75011 PARIS", "zip_code": "1"}, {"name": "ALESIA GERGOVIE", "longitude": 2.318882101207347, "latitude": 48.83088717455243, "address": "FA", "number": 14027, "city": " DE GERGOVIE - 75014 PARIS", "zip_code": "83"}, {"name": "PAUL VAL\u00c3\u2030RY", "longitude": 2.288866396041159, "latitude": 48.871361039775586, "address": "26-32 RUE PAUL VALERY - 75016 PA", "number": 16104, "city": "RUE PAUL VALERY - 75016 PARIS", "zip_code": "26"}, {"name": "CHARONNE FROT", "longitude": 2.387217085372007, "latitude": 48.854963800335234, "address": "31 RUE LEON FROT - 75011 PA", "number": 11111, "city": " LEON FROT - 75011 PARIS", "zip_code": "31"}, {"name": "FELIZ ZIEM", "longitude": 2.333393658804396, "latitude": 48.88949630486821, "address": "2 RUE FELIX ZIEM - 75018 PA", "number": 18111, "city": "FELIX ZIEM - 75018 PARIS", "zip_code": "2"}, {"name": "JOURDAN LE BRIX ET MESNIN", "longitude": 2.327861653302471, "latitude": 48.82234096593411, "address": "RUE LE BRIX ET MESNIN", "number": 14108, "city": "PARIS", "zip_code": "75014"}, {"name": "MESSINE", "longitude": 2.315465494584916, "latitude": 48.87545720024482, "address": "2 AVENUE MESSINE - 75008 PA", "number": 8026, "city": "UE MESSINE - 75008 PARIS", "zip_code": "2"}, {"name": "MAUBEUGE CONDORCET", "longitude": 2.349147493536092, "latitude": 48.879223370628495, "address": "19 RUE D'ABBEVILLE - 75009 PA", "number": 9002, "city": " D'ABBEVILLE - 75009 PARIS", "zip_code": "19"}, {"name": "CHARONNE PHILIPPE AUGUSTE", "longitude": 2.390546390619984, "latitude": 48.85560316202584, "address": "156 RUE DE CHARONNE - 75011 PA", "number": 11019, "city": "E DE CHARONNE - 75011 PARIS", "zip_code": "156"}, {"name": "BOLIVAR BURNOUF", "longitude": 2.374276509236151, "latitude": 48.87712417766737, "address": "82 AVENUE SIMON BOLIVAR - 75019 PA", "number": 19118, "city": "NUE SIMON BOLIVAR - 75019 PARIS", "zip_code": "82"}, {"name": "CARDINAL LEMOINE", "longitude": 2.352222921607491, "latitude": 48.84629503172156, "address": "40 RUE BOU LANGERS - 75005 PA", "number": 5022, "city": " BOU LANGERS - 75005 PARIS", "zip_code": "40"}, {"name": "HITTORFF", "longitude": 2.35766368561921, "latitude": 48.87208360886937, "address": "FA", "number": 10009, "city": " HITTORFF - 75010 PARIS", "zip_code": "14"}, {"name": "BEL AIR", "longitude": 2.400525668552064, "latitude": 48.839988788911874, "address": "FA", "number": 12038, "city": "LEVARD PICPUS - 75012 PARIS", "zip_code": "12"}, {"name": "BOULARD DAGUERRE", "longitude": 2.329303946545288, "latitude": 48.834390797006805, "address": "14 RUE BOULARD - 75014 PA", "number": 14036, "city": " BOULARD - 75014 PARIS", "zip_code": "14"}, {"name": "BROCHANT", "longitude": 2.319730559929781, "latitude": 48.89032998912038, "address": "43 RUE BROCHANT - 75017 PA", "number": 17005, "city": " BROCHANT - 75017 PARIS", "zip_code": "43"}, {"name": "HENRI MARTIN", "longitude": 2.268806550199479, "latitude": 48.863025315388256, "address": "FA", "number": 16019, "city": " HENRI MARTIN - 75016 PARIS", "zip_code": "98"}, {"name": "CHAPELLE", "longitude": 2.359435454901881, "latitude": 48.892656891991216, "address": "2 IMPASSE DE LA CHAPELLE - 75018 PA", "number": 18104, "city": "SSE DE LA CHAPELLE - 75018 PARIS", "zip_code": "2"}, {"name": "BOBILLOT MERY", "longitude": 2.35424653463425, "latitude": 48.82987537265954, "address": "17 RUE BOBILLOT - 75013 PA", "number": 13106, "city": " BOBILLOT - 75013 PARIS", "zip_code": "17"}, {"name": "RHIN DANUBE (BOULOGNE BILLANCOURT)", "longitude": 2.227978774754288, "latitude": 48.84064929857331, "address": "15 ROND POINT RHIN DANUBE - 92100 BOULOGNE BILLANCO", "number": 21007, "city": "D POINT RHIN DANUBE - 92100 BOULOGNE BILLANCOURT", "zip_code": "15"}, {"name": "BOURSE DU TRAVAIL", "longitude": 2.364035059250436, "latitude": 48.87346279870817, "address": "100 QUAI DE JEMMAPES - 75010 PA", "number": 10111, "city": "AI DE JEMMAPES - 75010 PARIS", "zip_code": "100"}, {"name": "BOLIVAR", "longitude": 2.3734047671616, "latitude": 48.881447321103366, "address": "53 RUE DE MEAUX - 75019 PA", "number": 19022, "city": " DE MEAUX - 75019 PARIS", "zip_code": "53"}, {"name": "LOLIVE 2 (PANTIN)", "longitude": 2.412529571472175, "latitude": 48.89271966633131, "address": "132 RUE JEAN LOLIVE - 93500 PAN", "number": 35008, "city": "E JEAN LOLIVE - 93500 PANTIN", "zip_code": "132"}, {"name": "PLACE DU MAROC", "longitude": 2.368856390499634, "latitude": 48.886233417429835, "address": "27 RUE DE TANGER - 75019 PA", "number": 19109, "city": " DE TANGER - 75019 PARIS", "zip_code": "27"}, {"name": "MARCEAU", "longitude": 2.298514048803577, "latitude": 48.868851708234864, "address": "45 AVENUE MARCEAU - 75008 PA", "number": 8048, "city": "NUE MARCEAU - 75008 PARIS", "zip_code": "45"}, {"name": "FAUBOURG MONTMARTRE", "longitude": 2.340772662331439, "latitude": 48.875329723153264, "address": "55 RUE DU FAUBOURG MONTMARTRE - 75009 PA", "number": 9014, "city": " DU FAUBOURG MONTMARTRE - 75009 PARIS", "zip_code": "55"}, {"name": "ROCHECHOUART MAUBEUGE", "longitude": 2.344785602987212, "latitude": 48.87789001497427, "address": "25 RUE DE ROCHECHOUART - 75009 PA", "number": 9108, "city": " DE ROCHECHOUART - 75009 PARIS", "zip_code": "25"}, {"name": "BLANQUI CORVISART", "longitude": 2.350403587821832, "latitude": 48.82998371071962, "address": "46 BOULEVARD AUGUSTE BLANQUI - 75013 PA", "number": 13009, "city": "LEVARD AUGUSTE BLANQUI - 75013 PARIS", "zip_code": "46"}, {"name": "MATHIS", "longitude": 2.376142468863619, "latitude": 48.89067812943125, "address": "6 RUE MATHIS - 75019 PA", "number": 19006, "city": "MATHIS - 75019 PARIS", "zip_code": "6"}, {"name": "BODIN AVENUE DE CLICHY", "longitude": 2.317313258110739, "latitude": 48.89263392143244, "address": "2 RUE PAUL BODIN - 75017 PA", "number": 17009, "city": "PAUL BODIN - 75017 PARIS", "zip_code": "2"}, {"name": "BARTHES TROYES", "longitude": 2.37908134343237, "latitude": 48.84394917584249, "address": "3 RUE ROLAND BARTHES - 75012 PA", "number": 12106, "city": "ROLAND BARTHES - 75012 PARIS", "zip_code": "3"}, {"name": "LEDIT DE NANTES", "longitude": 2.378500156138491, "latitude": 48.8887900267753, "address": "PLACE LEDIT DE NANTES", "number": 19125, "city": "PARIS", "zip_code": "75019"}, {"name": "FONTAINEBLEAU (KREMLIN BICETRE)", "longitude": 2.36268350990116, "latitude": 48.8095823380351, "address": "93 AVENUE DE FONTAINEBLEAU - 94270 LE KREMLIN BICE", "number": 42703, "city": "NUE DE FONTAINEBLEAU - 94270 LE KREMLIN BICETRE", "zip_code": "93"}, {"name": "SQUARE LOUIS XVI", "longitude": 2.323658830743138, "latitude": 48.87320440102894, "address": "D", "number": 8016, "city": " PASQUIER - 75008 PARIS", "zip_code": "32"}, {"name": "AMETTE", "longitude": 2.296710300930856, "latitude": 48.851454182127426, "address": "26 RUE DUPLEIX - 75015 PA", "number": 15025, "city": " DUPLEIX - 75015 PARIS", "zip_code": "26"}, {"name": "LACEPEDE", "longitude": 2.354615982683207, "latitude": 48.84367484543761, "address": "2 RUE LACEPEDE - 75005 PA", "number": 5031, "city": "LACEPEDE - 75005 PARIS", "zip_code": "2"}, {"name": "ASSAS LUXEMBOURG", "longitude": 2.333428381875887, "latitude": 48.84373446877937, "address": "90 RUE D'ASSAS - 75006 PA", "number": 6008, "city": " D'ASSAS - 75006 PARIS", "zip_code": "90"}, {"name": "OP\u00c3\u2030RA PYRAMIDES", "longitude": 2.334388448251871, "latitude": 48.866810653323, "address": "4 RUE DE VENTADOUR - 75001 PA", "number": 1116, "city": "DE VENTADOUR - 75001 PARIS", "zip_code": "4"}, {"name": "VIOLET", "longitude": 2.290541560154527, "latitude": 48.84479039026177, "address": "5 PLACE VIOLET - 75015 PA", "number": 15033, "city": "E VIOLET - 75015 PARIS", "zip_code": "5"}, {"name": "PORTE CHAUMONT", "longitude": 2.397846415383189, "latitude": 48.88573329985865, "address": "RUE SIGMUND FREUD / PORTE CHAUMONT", "number": 19035, "city": "PARIS", "zip_code": "75019"}, {"name": "OURCQ CRIMEE", "longitude": 2.372946088467279, "latitude": 48.894104140316266, "address": "243 RUE DE CRIMEE - 75019 PA", "number": 19001, "city": "E DE CRIMEE - 75019 PARIS", "zip_code": "243"}, {"name": "PASTEUR (SAINT MANDE)", "longitude": 2.42377059524055, "latitude": 48.845779219164555, "address": "AVENUE PASTEUR/AVENUE DE PARIS", "number": 41603, "city": "SAINT MANDE", "zip_code": "94160"}, {"name": "MARTYRS 2", "longitude": 2.340651849622331, "latitude": 48.88219420395092, "address": "FA", "number": 18041, "city": "ULEVARD DE ROCHECHOUART - 75018 PARIS", "zip_code": "112"}, {"name": "SQUARE DE MENILMONTANT", "longitude": 2.396690612876254, "latitude": 48.87013645868239, "address": "138 RUE DE MENILMONTANT - 75020 PA", "number": 20119, "city": "E DE MENILMONTANT - 75020 PARIS", "zip_code": "138"}, {"name": "COURS DE VINCENNES BD DAVOUT", "longitude": 2.4103900081973, "latitude": 48.8473310531154, "address": "107 COURS DE VINCENNES - 75020 PA", "number": 20047, "city": "URS DE VINCENNES - 75020 PARIS", "zip_code": "107"}, {"name": "BIR HAKEIM", "longitude": 2.289705348222022, "latitude": 48.853844054333514, "address": "FA", "number": 15026, "city": "EVARD DE GRENELLE - 75015 PARIS", "zip_code": "6"}, {"name": "BONNE NOUVELLE SAINT FIACRE", "longitude": 2.345905811394424, "latitude": 48.87078277953678, "address": "20 RUE SAINT FIACRE - 75002 PA", "number": 2022, "city": " SAINT FIACRE - 75002 PARIS", "zip_code": "20"}, {"name": "PYR\u00c3\u2030N\u00c3\u2030ES - PLAINE", "longitude": 2.406296107816583, "latitude": 48.850285280635795, "address": "33 RUE DES PYRENEES - 75020 PA", "number": 20006, "city": " DES PYRENEES - 75020 PARIS", "zip_code": "33"}, {"name": "STADE FRANCAIS", "longitude": 2.252191060537607, "latitude": 48.838713363162405, "address": "24 AVENUE DE LA PORTE DE SAINT CLOUD - 75016 PA", "number": 16044, "city": "NUE DE LA PORTE DE SAINT CLOUD - 75016 PARIS", "zip_code": "24"}, {"name": "CARNOT", "longitude": 2.293732100169925, "latitude": 48.87553842110213, "address": "8 AVENUE CARNOT - 75017 PA", "number": 17033, "city": "UE CARNOT - 75017 PARIS", "zip_code": "8"}, {"name": "PYRENEES", "longitude": 2.395039981220676, "latitude": 48.86941289116132, "address": "262 RUE DES PYRENEES - 75020 PA", "number": 20035, "city": "E DES PYRENEES - 75020 PARIS", "zip_code": "262"}, {"name": "CHAPELLE MARX DORMOY", "longitude": 2.360215572664323, "latitude": 48.88457006316311, "address": "29 BOULEVARD DE LA CHAPELLE - 75018 PA", "number": 18040, "city": "LEVARD DE LA CHAPELLE - 75018 PARIS", "zip_code": "29"}, {"name": "MARCHE ST QUENTIN", "longitude": 2.354511445637388, "latitude": 48.877356057652264, "address": "4 RUE DES PETITS HOTELS - 75010 PA", "number": 10021, "city": "DES PETITS HOTELS - 75010 PARIS", "zip_code": "4"}, {"name": "PETITES ECURIES", "longitude": 2.35403448428308, "latitude": 48.872939767837096, "address": "5 RUE DES PETITES ECURIES - 75010 PA", "number": 10006, "city": "DES PETITES ECURIES - 75010 PARIS", "zip_code": "5"}, {"name": "RUISSEAU ORDENER", "longitude": 2.340119632436559, "latitude": 48.892895283967825, "address": "37 RUE DU RUISSEAU - 75018 PA", "number": 18026, "city": " DU RUISSEAU - 75018 PARIS", "zip_code": "37"}, {"name": "PAUL DOUMER / LA TOUR", "longitude": 2.280840481911055, "latitude": 48.860116109626574, "address": "53 AVENUE PAUL DOUMER - 75016 PA", "number": 16016, "city": "NUE PAUL DOUMER - 75016 PARIS", "zip_code": "53"}, {"name": "CITE DES SCIENCES", "longitude": 2.384649644021933, "latitude": 48.89654905978759, "address": "28BIS AVENUE CORENTIN CARIOU - 75019 PA", "number": 19009, "city": "AVENUE CORENTIN CARIOU - 75019 PARIS", "zip_code": "28"}, {"name": "SIMON BOLIVAR", "longitude": 2.382591714979966, "latitude": 48.875070404063074, "address": "36 AVENUE SIMON BOLIVAR - 75019 PA", "number": 19101, "city": "NUE SIMON BOLIVAR - 75019 PARIS", "zip_code": "36"}, {"name": "PORTE DE SAINT OUEN", "longitude": 2.32851451022192, "latitude": 48.89792240854517, "address": "1 AVENUE DE LA PORTE DE SAINT OUEN - 75017 PA", "number": 17044, "city": "UE DE LA PORTE DE SAINT OUEN - 75017 PARIS", "zip_code": "1"}, {"name": "DIDEROT BOURDAN", "longitude": 2.390238633141864, "latitude": 48.847653880984645, "address": "146 BOULEVARD DIDEROT - 75012 PA", "number": 12107, "city": "ULEVARD DIDEROT - 75012 PARIS", "zip_code": "146"}, {"name": "SAINT FRANCOIS XAVIER", "longitude": 2.314633840627834, "latitude": 48.85167822904787, "address": "35 BOULEVARD DES INVALIDES - 75007 PA", "number": 7014, "city": "LEVARD DES INVALIDES - 75007 PARIS", "zip_code": "35"}, {"name": "EDGAR QUINET", "longitude": 2.324448789519074, "latitude": 48.84115621648301, "address": "13 BOULEVARD EDGAR QUINET - 75014 PA", "number": 14001, "city": "LEVARD EDGAR QUINET - 75014 PARIS", "zip_code": "13"}, {"name": "TEMPLE 113", "longitude": 2.35660934144383, "latitude": 48.861581157730946, "address": "76 RUE DU TEMPLE - 75003 PA", "number": 3009, "city": " DU TEMPLE - 75003 PARIS", "zip_code": "76"}, {"name": "REPUBLIQUE 23", "longitude": 2.36351, "latitude": 48.86707, "address": "19 PLACE DE LA REPUBLIQUE - 75003 PA", "number": 3004, "city": "CE DE LA REPUBLIQUE - 75003 PARIS", "zip_code": "19"}, {"name": "PORTE BRUNET", "longitude": 2.395719508193907, "latitude": 48.88365921093733, "address": "FA", "number": 19105, "city": "UE AMBROISE RENDU - 75019 PARIS", "zip_code": "1"}, {"name": "DAMREMONT CAULAINCOURT", "longitude": 2.332648363845394, "latitude": 48.88727464264267, "address": "6 RUE DAMREMONT - 75018 PA", "number": 18001, "city": "DAMREMONT - 75018 PARIS", "zip_code": "6"}, {"name": "PERE LACHAISE", "longitude": 2.387133957573714, "latitude": 48.863411107404715, "address": "54 BOULEVARD MENILMONTANT - 75020 PA", "number": 20030, "city": "LEVARD MENILMONTANT - 75020 PARIS", "zip_code": "54"}, {"name": "OPERA CASANOVA", "longitude": 2.333268593101536, "latitude": 48.867623078056845, "address": "02 RUE DANIEL CASANOVA - 75002 PA", "number": 2020, "city": " DANIEL CASANOVA - 75002 PARIS", "zip_code": "02"}, {"name": "LOSSERAND BOYER-BARRET", "longitude": 2.317377, "latitude": 48.833139, "address": "4 RUE BOYER BARRET - 75014 PA", "number": 14104, "city": "BOYER BARRET - 75014 PARIS", "zip_code": "4"}, {"name": "CHARONNE SAINT ANTOINE", "longitude": 2.374027235613735, "latitude": 48.852255290042486, "address": "3 RUE DE CHARONNE - 75011 PA", "number": 11004, "city": "DE CHARONNE - 75011 PARIS", "zip_code": "3"}, {"name": "RUE JEAN BOLOGNE", "longitude": 2.280027395306772, "latitude": 48.857566889784465, "address": "16 RUE JEAN BOLOGNE - 75016 PA", "number": 16022, "city": " JEAN BOLOGNE - 75016 PARIS", "zip_code": "16"}, {"name": "GARE EMGP", "longitude": 2.37267, "latitude": 48.90162, "address": "35, rue de la Gare - 75019 PA", "number": 19106, "city": "e de la Gare - 75019 PARIS", "zip_code": "35"}, {"name": "PLACE D ITALIE AURIOL", "longitude": 2.356708420760657, "latitude": 48.831582643774894, "address": "FA", "number": 13010, "city": "CE D'ITALIE - 75013 PARIS", "zip_code": "11"}, {"name": "BERTHIER STUART MERRIL", "longitude": 2.293234151072418, "latitude": 48.88591312825616, "address": "182 BOULEVARD BERTHIER - 75017 PA", "number": 17107, "city": "ULEVARD BERTHIER - 75017 PARIS", "zip_code": "182"}, {"name": "CROULEBARBE RECULETTES", "longitude": 2.348108654777346, "latitude": 48.831121775069235, "address": "67-69 RUE DE CROULEBARBE - 75013 PA", "number": 13101, "city": "RUE DE CROULEBARBE - 75013 PARIS", "zip_code": "67"}, {"name": "LENINE (GENTILLY)", "longitude": 2.332054794950423, "latitude": 48.81315667771776, "address": "FA", "number": 42503, "city": "NUE LENINE - 94250 GENTILLY", "zip_code": "71"}, {"name": "GARE D'AUSTERLITZ", "longitude": 2.366124461859616, "latitude": 48.84057730290756, "address": "GARE D'AUSTERLITZ", "number": 13151, "city": "PARIS", "zip_code": "75013"}, {"name": "PLACE DU CANADA", "longitude": 2.310193787964762, "latitude": 48.865346269362675, "address": "1 AVENUE FRANKLIN ROOSEVELT - 75008 PA", "number": 8029, "city": "UE FRANKLIN ROOSEVELT - 75008 PARIS", "zip_code": "1"}, {"name": "COMMERCE", "longitude": 2.29404143328216, "latitude": 48.844425919545365, "address": "2 RUE LAKANAL - 75015 PA", "number": 15034, "city": "LAKANAL - 75015 PARIS", "zip_code": "2"}, {"name": "TURENNE BRETAGNE", "longitude": 2.364951386893752, "latitude": 48.86213223497159, "address": "4 RUE DES FILLES DU CALVAIRE - 75003 PA", "number": 3003, "city": "DES FILLES DU CALVAIRE - 75003 PARIS", "zip_code": "4"}, {"name": "OUDINE PATAY", "longitude": 2.375044300094851, "latitude": 48.825712903519616, "address": "10 RUE EUGENE OUDINE - 75013 PA", "number": 13046, "city": " EUGENE OUDINE - 75013 PARIS", "zip_code": "10"}, {"name": "PELLEPORT BELGRAND", "longitude": 2.403980836377493, "latitude": 48.86500081847653, "address": "44 RUE PELLEPORT - 75020 PA", "number": 20023, "city": " PELLEPORT - 75020 PARIS", "zip_code": "44"}, {"name": "BOURSE DU COMMERCE", "longitude": 2.341555077827231, "latitude": 48.86299816676784, "address": "FA", "number": 1012, "city": " JEAN JACQUES ROUSSEAU - 75001 PARIS", "zip_code": "29"}, {"name": "CIMETIERE DE GENTILLY", "longitude": 2.353260183740912, "latitude": 48.818574415839485, "address": "RUE DE LA POTERNE DES PEUPLIERS", "number": 13111, "city": "PARIS", "zip_code": "75013"}, {"name": "CASANOVA (IVRY)", "longitude": 2.384207013557983, "latitude": 48.81420628475591, "address": "128 AVENUE DANIEL CASANOVA - 94200 I", "number": 42008, "city": "ENUE DANIEL CASANOVA - 94200 IVRY", "zip_code": "128"}, {"name": "BOIS DE VINCENNES", "longitude": 2.413463576486826, "latitude": 48.833654852830335, "address": "AVENUE DAUMESNIL", "number": 12041, "city": "PARIS", "zip_code": "75012"}, {"name": "FRUCTIDOR (SAINT OUEN)", "longitude": 2.324819807804481, "latitude": 48.900889626876015, "address": "FA", "number": 34001, "city": " FRUCTIDOR / FACE BAT 2 LE COLYSEE - 93400 SAINT OUEN", "zip_code": "10"}, {"name": "SANZILLON (CLICHY)", "longitude": 2.319176657580128, "latitude": 48.903676702256305, "address": "64 RUE DE MADAME DE SANZILLON - 92110 CLI", "number": 21104, "city": " DE MADAME DE SANZILLON - 92110 CLICHY", "zip_code": "64"}, {"name": "RUE DES BOULETS", "longitude": 2.3890216505832, "latitude": 48.852193095437535, "address": "45 RUE DES BOULETS - 75011 PA", "number": 11009, "city": " DES BOULETS - 75011 PARIS", "zip_code": "45"}, {"name": "MANIN CRIMEE", "longitude": 2.38634884002286, "latitude": 48.8830298392804, "address": "8 RUE MANIN - 75019 PA", "number": 19031, "city": "MANIN - 75019 PARIS", "zip_code": "8"}, {"name": "VOLTAIRE (LEVALLOIS)", "longitude": 2.284204990113615, "latitude": 48.891962328964816, "address": "47 RUE VOLTAIRE - 92300 LEVALLOIS-PER", "number": 23010, "city": " VOLTAIRE - 92300 LEVALLOIS-PERRET", "zip_code": "47"}, {"name": "ITALIE MAISON BLANCHE", "longitude": 2.358701217878322, "latitude": 48.821159320800966, "address": "121 AVENUE D'ITALIE - 75013 PA", "number": 13031, "city": "ENUE D'ITALIE - 75013 PARIS", "zip_code": "121"}, {"name": "TRUDAINE MARTYRS", "longitude": 2.340774412117837, "latitude": 48.88103214901626, "address": "01 RUE LALLIER - 75009 PA", "number": 9017, "city": " LALLIER - 75009 PARIS", "zip_code": "01"}, {"name": "PARC DE BERCY", "longitude": 2.382217337050408, "latitude": 48.83772145898209, "address": "61 RUE DE BERCY - 75012 PA", "number": 12026, "city": " DE BERCY - 75012 PARIS", "zip_code": "61"}, {"name": "REUILLY DIDEROT", "longitude": 2.385707672217665, "latitude": 48.847296310645035, "address": "71 BOULEVARD DIDEROT - 75012 PA", "number": 12012, "city": "LEVARD DIDEROT - 75012 PARIS", "zip_code": "71"}, {"name": "MOUFFETARD SAINT MEDARD", "longitude": 2.34993205295774, "latitude": 48.83899382454321, "address": "3 RUE PASCAL - 75005 PA", "number": 5026, "city": "PASCAL - 75005 PARIS", "zip_code": "3"}, {"name": "SAINT SEBASTIEN FROISSARD", "longitude": 2.367352328799597, "latitude": 48.861205051934334, "address": "12 BD DES FILLES DU CALVAIRE - 75011 PA", "number": 11045, "city": "DES FILLES DU CALVAIRE - 75011 PARIS", "zip_code": "12"}, {"name": "POULMARCH (LES LILAS)", "longitude": 2.41616066183218, "latitude": 48.8794000532367, "address": "7 RUE JEAN POULMARCH - 93260 LES LI", "number": 32602, "city": "JEAN POULMARCH - 93260 LES LILAS", "zip_code": "7"}, {"name": "FOURCHE", "longitude": 2.326124420314341, "latitude": 48.88794016394694, "address": "12 RUE ETIENNE JOGELLE - 75018 PA", "number": 18046, "city": " ETIENNE JOGELLE - 75018 PARIS", "zip_code": "12"}, {"name": "BEAUREPAIRE", "longitude": 2.363933311380362, "latitude": 48.8716626619994, "address": "14 RUE DE MARSEILLE - 75010 PA", "number": 10014, "city": " DE MARSEILLE - 75010 PARIS", "zip_code": "14"}, {"name": "PORTE DE LA VILLETTE", "longitude": 2.386120008210507, "latitude": 48.89849005307383, "address": "1 AVENUE DE LA PORTE DE LA VILLETTE - 75019 PA", "number": 19115, "city": "UE DE LA PORTE DE LA VILLETTE - 75019 PARIS", "zip_code": "1"}, {"name": "CARDINAL LAVIGERIE", "longitude": 2.402636749399156, "latitude": 48.832934193699835, "address": "4 PLACE DU CARDINAL LAVIGERIE - 75012 PA", "number": 12113, "city": "E DU CARDINAL LAVIGERIE - 75012 PARIS", "zip_code": "4"}, {"name": "PYRENEES ERMITAGE", "longitude": 2.391739173776302, "latitude": 48.87215737993568, "address": "300 RUE DES PYRENEES - 75020 PA", "number": 20042, "city": "E DES PYRENEES - 75020 PARIS", "zip_code": "300"}, {"name": "BOURDONNAIS TOUR EIFFEL", "longitude": 2.29559959844703, "latitude": 48.860897797941035, "address": "QUAI BRANLY", "number": 7023, "city": "PARIS", "zip_code": "75007"}, {"name": "LEPIC", "longitude": 2.33432733641793, "latitude": 48.8875730709534, "address": "70 - 72 RUE LEPIC - 75018 PA", "number": 18113, "city": "2 RUE LEPIC - 75018 PARIS", "zip_code": "70"}, {"name": "SERRURIER", "longitude": 2.3978962906105, "latitude": 48.8806060535742, "address": "FA", "number": 19027, "city": "ULEVARD SERURIER - 75019 PARIS", "zip_code": "109"}, {"name": "JAURES 1 (PRE SAINT GERVAIS)", "longitude": 2.407468689386476, "latitude": 48.886526983267544, "address": "RUE GABRIEL PERI ANGLE AVENUE JAURES", "number": 33102, "city": "LE PRE SAINT GERVAIS", "zip_code": "93310"}, {"name": "DANUBE", "longitude": 2.392496216649528, "latitude": 48.88195317244523, "address": "53 RUE MIGUEL HIDALGO - 75019 PA", "number": 19026, "city": " MIGUEL HIDALGO - 75019 PARIS", "zip_code": "53"}, {"name": "PORTE DE COURCELLE", "longitude": 2.296319931841717, "latitude": 48.88880002064895, "address": "34 BOULEVARD DE REIMS - 75017 PA", "number": 17028, "city": "LEVARD DE REIMS - 75017 PARIS", "zip_code": "34"}, {"name": "RENNEQUIN PEREIRE", "longitude": 2.295152067446227, "latitude": 48.88363915389933, "address": "143 BOULEVARD DE PEREIRE - 75017 PA", "number": 17030, "city": "ULEVARD DE PEREIRE - 75017 PARIS", "zip_code": "143"}, {"name": "GARE DE L'EST SAINT LAURENT", "longitude": 2.356796765204903, "latitude": 48.874575036780286, "address": "1 RUE DE LA FIDELITE - 75010 PA", "number": 10017, "city": "DE LA FIDELITE - 75010 PARIS", "zip_code": "1"}, {"name": "SQUARE DES C\u00c3\u2030VENNES", "longitude": 2.275108332056225, "latitude": 48.84341723238589, "address": "01 RUE CAUCHY - 75015 PA", "number": 15103, "city": " CAUCHY - 75015 PARIS", "zip_code": "01"}, {"name": "SAINT PHILIPPE DU ROULE", "longitude": 2.309722588932229, "latitude": 48.872787680846464, "address": "1 RUE DU CDT RIVIERE - 75008 PA", "number": 8033, "city": "DU CDT RIVIERE - 75008 PARIS", "zip_code": "1"}, {"name": "BOTZARIS", "longitude": 2.38896041078391, "latitude": 48.8795614522371, "address": "FA", "number": 19025, "city": " BOTZARIS - 75019 PARIS", "zip_code": "80"}, {"name": "RIVOLI SEBASTOPOL", "longitude": 2.350217280976349, "latitude": 48.857999643314926, "address": "1 RUE SAINT BON - 75004 PA", "number": 4018, "city": "SAINT BON - 75004 PARIS", "zip_code": "1"}, {"name": "MICHEL ANGE", "longitude": 2.258373658198948, "latitude": 48.840610399663696, "address": "91 RUE MICHEL ANGE - 75016 PA", "number": 16118, "city": " MICHEL ANGE - 75016 PARIS", "zip_code": "91"}, {"name": "THOREL", "longitude": 2.348995518049354, "latitude": 48.87000061719652, "address": "11 RUE THOREL - 75002 PA", "number": 2107, "city": " THOREL - 75002 PARIS", "zip_code": "11"}, {"name": "SALENGRO (KREMLIN BICETRE)", "longitude": 2.36134550272134, "latitude": 48.814662495608864, "address": "3 RUE ROGER SALENGRO -  94270 LE KREMLIN BICE", "number": 42706, "city": "ROGER SALENGRO -  94270 LE KREMLIN BICETRE", "zip_code": "3"}, {"name": "GAMBETTA GATINES", "longitude": 2.397814475307571, "latitude": 48.8653941647232, "address": "13 RUE DES GATINES - 75020 PA", "number": 20025, "city": " DES GATINES - 75020 PARIS", "zip_code": "13"}, {"name": "JAURES (PUTEAUX)", "longitude": 2.237362446304566, "latitude": 48.88047087219649, "address": "152 RUE JEAN JAURES - 92800 PUTE", "number": 28003, "city": "E JEAN JAURES - 92800 PUTEAUX", "zip_code": "152"}, {"name": "COTY TOMBE D'ISSOIRE", "longitude": 2.33378329803361, "latitude": 48.83055599940998, "address": "49 RUE DE LA TOMBE D'ISSOIRE - 75014 PA", "number": 14009, "city": " DE LA TOMBE D'ISSOIRE - 75014 PARIS", "zip_code": "49"}, {"name": "GONCOURT", "longitude": 2.371536810663942, "latitude": 48.86946960532872, "address": "140 AVENUE PARMENTIER - 75011 PA", "number": 11035, "city": "ENUE PARMENTIER - 75011 PARIS", "zip_code": "140"}, {"name": "CHAMPIONNET", "longitude": 2.349865450921441, "latitude": 48.895470370399146, "address": "32 RUE CHAMPIONNET - 75018 PA", "number": 18101, "city": " CHAMPIONNET - 75018 PARIS", "zip_code": "32"}, {"name": "QUAI DE METZ", "longitude": 2.3865, "latitude": 48.89106, "address": "7 QUAI DE METZ - 75019 PA", "number": 19123, "city": " DE METZ - 75019 PARIS", "zip_code": "7"}, {"name": "THEBAUD RUE DE CAMBRONNE", "longitude": 2.301753086991115, "latitude": 48.845831419610754, "address": "32 RUE CAMBRONNE - 75015 PA", "number": 15011, "city": " CAMBRONNE - 75015 PARIS", "zip_code": "32"}, {"name": "SAINT EMILION", "longitude": 2.386133168700345, "latitude": 48.83350833245743, "address": "FA", "number": 12033, "city": " FRANCOIS TRUFFAUT - 75012 PARIS", "zip_code": "28"}, {"name": "GODOT DE MAUROY", "longitude": 2.326599657113696, "latitude": 48.869956681574806, "address": "2 RUE GODOT DE MAUROY - 75009 PA", "number": 9034, "city": "GODOT DE MAUROY - 75009 PARIS", "zip_code": "2"}, {"name": "MAINE GAITE", "longitude": 2.322551640018162, "latitude": 48.83788362776244, "address": "90 AVENUE DU MAINE - 75014 PA", "number": 14035, "city": "NUE DU MAINE - 75014 PARIS", "zip_code": "90"}, {"name": "LECORBUSIER (BOULOGNE-BILLANCOURT)", "longitude": 2.240846664821182, "latitude": 48.83799829528177, "address": "FACE ", "number": 21009, "city": "LECORBUSIER - 92100 BOULOGNE-BILLANCOURT", "zip_code": "1"}, {"name": "AVENUE DE LA PORTE D'ASNI\u00c3\u02c6RES", "longitude": 2.303457408685266, "latitude": 48.89058621555025, "address": "22 AVENUE DE LA PORTE D'ASNIERES - 75017 PA", "number": 17023, "city": "NUE DE LA PORTE D'ASNIERES - 75017 PARIS", "zip_code": "22"}, {"name": "COURONNES", "longitude": 2.381282601102786, "latitude": 48.868940642855314, "address": "44 BOULEVARD DE BELLEVILLE - 75020 PA", "number": 20039, "city": "LEVARD DE BELLEVILLE - 75020 PARIS", "zip_code": "44"}, {"name": "BELLES FEUILLES", "longitude": 2.282859908979733, "latitude": 48.86585549636314, "address": "4 RUE DES BELLES FEUILLES - 75016 PA", "number": 16010, "city": "DES BELLES FEUILLES - 75016 PARIS", "zip_code": "4"}, {"name": "WASHINGTON", "longitude": 2.299972932642669, "latitude": 48.87288299097443, "address": "2 RUE BALZAC - 75008 PA", "number": 8052, "city": "BALZAC - 75008 PARIS", "zip_code": "2"}, {"name": "WAGRAM COURCELLES", "longitude": 2.301138378176729, "latitude": 48.88185715074461, "address": "105 RUE JOUFFROY D'ABBANS - 75017 PA", "number": 17026, "city": "E JOUFFROY D'ABBANS - 75017 PARIS", "zip_code": "105"}, {"name": "LECLERC (KREMLIN BICETRE)", "longitude": 2.358172896462481, "latitude": 48.81047749960048, "address": "73 RUE DU GENERAL LECLERC - 94270 LE KREMELIN BICE", "number": 42702, "city": " DU GENERAL LECLERC - 94270 LE KREMELIN BICETRE", "zip_code": "73"}, {"name": "ABBE CARTON", "longitude": 2.320714098089133, "latitude": 48.82774626607583, "address": "89 RUE DE L'ABBE CARTON - 75014 PA", "number": 14110, "city": " DE L'ABBE CARTON - 75014 PARIS", "zip_code": "89"}, {"name": "GARE DU NORD 2", "longitude": 2.354159095958248, "latitude": 48.87904931076023, "address": "3 BOULEVARD DE DENAIN - 75010 PA", "number": 10152, "city": "EVARD DE DENAIN - 75010 PARIS", "zip_code": "3"}, {"name": "PORTE DE MONTROUGE 2", "longitude": 2.322936857107952, "latitude": 48.82341630050286, "address": "2 AVENUE DE LA PORTE DE MONTROUGE - 75014 PA", "number": 14107, "city": "UE DE LA PORTE DE MONTROUGE - 75014 PARIS", "zip_code": "2"}, {"name": "THEATRE", "longitude": 2.289906646457531, "latitude": 48.84817034136516, "address": "60 RUE DU THEATRE - 75015 PA", "number": 15031, "city": " DU THEATRE - 75015 PARIS", "zip_code": "60"}, {"name": "ST ANTOINE GONNET", "longitude": 2.391754614194301, "latitude": 48.84925926211519, "address": "1 RUE DES BOULETS - 75011 PA", "number": 11010, "city": "DES BOULETS - 75011 PARIS", "zip_code": "1"}, {"name": "BOSQUET SAINT DOMINIQUE", "longitude": 2.303716580234576, "latitude": 48.85865170952645, "address": "37 AVENUE BOSQUET - 75007 PA", "number": 7021, "city": "NUE BOSQUET - 75007 PARIS", "zip_code": "37"}, {"name": "POINCARE VICTOR HUGO", "longitude": 2.285074541420228, "latitude": 48.870306124369975, "address": "89 AVENUE RAYMOND POINCARE - 75016 PA", "number": 16005, "city": "NUE RAYMOND POINCARE - 75016 PARIS", "zip_code": "89"}, {"name": "ILES (ISSY LES MOULINEAUX)", "longitude": 2.249665298288027, "latitude": 48.8234505470138, "address": "ANGLE AVENUE JEAN MONNET ET BOULEVARD DES ILES ", "number": 21303, "city": "ISSY LES MOULINEAUX", "zip_code": "92130"}, {"name": "LABROUSTE", "longitude": 2.306898478208195, "latitude": 48.83285390827691, "address": "13 RUE FRANQUET - 75015 PA", "number": 15041, "city": " FRANQUET - 75015 PARIS", "zip_code": "13"}, {"name": "LAGROUA", "longitude": 2.380220606266108, "latitude": 48.828595283857425, "address": "18 RUE MARIE ANDREE LAGROUA - 75013 PA", "number": 13055, "city": " MARIE ANDREE LAGROUA - 75013 PARIS", "zip_code": "18"}, {"name": "PARADIS (BOULOGNE-BILLANCOURT)", "longitude": 2.257005867300889, "latitude": 48.833174958910085, "address": "FACE ", "number": 21021, "city": "E DES ENFANTS DU PARADIS - 92100 BOULOGNE BILLANCOURT", "zip_code": "128"}, {"name": "ECLUSES SAINT MARTIN", "longitude": 2.366011448983217, "latitude": 48.87742034308959, "address": "148 QUAI DE JEMMAPES - 75010 PA", "number": 10025, "city": "AI DE JEMMAPES - 75010 PARIS", "zip_code": "148"}, {"name": "MENILMONTANT BOYER", "longitude": 2.392020489286297, "latitude": 48.868910127448686, "address": "27 RUE BOYER - 75020 PA", "number": 20121, "city": " BOYER - 75020 PARIS", "zip_code": "27"}, {"name": "ROUVET DAMPIERRE", "longitude": 2.38499975689617, "latitude": 48.8933800500227, "address": "2 RUE ROUVET - 75019 PA", "number": 19011, "city": "ROUVET - 75019 PARIS", "zip_code": "2"}, {"name": "CHOISY POINT D'IVRY", "longitude": 2.363334710614756, "latitude": 48.82190796881169, "address": "28 AVENUE DE CHOISY - 75013 PA", "number": 13038, "city": "NUE DE CHOISY - 75013 PARIS", "zip_code": "28"}, {"name": "OPERA PYRAMIDES", "longitude": 2.334433421223788, "latitude": 48.86648351450895, "address": "27 RUE THERESE - 75001 PA", "number": 1016, "city": " THERESE - 75001 PARIS", "zip_code": "27"}, {"name": "FRANCAISE", "longitude": 2.347597912716465, "latitude": 48.864065046949904, "address": "6 RUE FRANCAISE - 75001 PA", "number": 1102, "city": "FRANCAISE - 75001 PARIS", "zip_code": "6"}, {"name": "FONTAINE RAYNOUARD", "longitude": 2.275580584185594, "latitude": 48.852786944099584, "address": "4 RUE JEAN DE LA FONTAINE - 75016 PA", "number": 16025, "city": "JEAN DE LA FONTAINE - 75016 PARIS", "zip_code": "4"}, {"name": "RUE DE SIAM", "longitude": 2.275346568555312, "latitude": 48.861720329027264, "address": "1 BIS RUE DE SIAM - 75016 PA", "number": 16017, "city": "RUE DE SIAM - 75016 PARIS", "zip_code": "1"}, {"name": "PORTE DES LILAS", "longitude": 2.411046298532085, "latitude": 48.87809927643587, "address": "57 RUE DES FRERES FLAVIEN - 75020 PA", "number": 20029, "city": " DES FRERES FLAVIEN - 75020 PARIS", "zip_code": "57"}, {"name": "GARE ROUTIERE ( SAINT CLOUD)", "longitude": 2.222189235680779, "latitude": 48.843126205966946, "address": "GARE ROUTIERE - ARRET TRAM", "number": 22101, "city": "SAINT CLOUD", "zip_code": "92210"}, {"name": "REPOS", "longitude": 2.389613136684456, "latitude": 48.859358523592554, "address": "41 RUE DU REPOS - 75020 PA", "number": 20131, "city": " DU REPOS - 75020 PARIS", "zip_code": "41"}, {"name": "RIVOLI SAINT DENIS", "longitude": 2.347620087684511, "latitude": 48.859150287255645, "address": "7 RUE SAINT DENIS - 75001 PA", "number": 1003, "city": "SAINT DENIS - 75001 PARIS", "zip_code": "7"}, {"name": "GUY MOCQUET", "longitude": 2.326803489834799, "latitude": 48.89282296302349, "address": "RUE GUY MOCQUET", "number": 17001, "city": "PARIS", "zip_code": "75017"}, {"name": "PONT NEUF", "longitude": 2.344366128446111, "latitude": 48.85946238924527, "address": "10 RUE BOUCHER - 75001 PA", "number": 1010, "city": " BOUCHER - 75001 PARIS", "zip_code": "10"}, {"name": "BROCHANT", "longitude": 2.316861143151153, "latitude": 48.88818698581028, "address": "3 RUE BROCHANT - 75017 PA", "number": 17016, "city": "BROCHANT - 75017 PARIS", "zip_code": "3"}, {"name": "ROQUETTE THIERE", "longitude": 2.373424541930557, "latitude": 48.85510629540472, "address": "37 RUE DE LA ROQUETTE - 75011 PA", "number": 11002, "city": " DE LA ROQUETTE - 75011 PARIS", "zip_code": "37"}, {"name": "VITRY DESAULT", "longitude": 2.378718606608679, "latitude": 48.821138751437616, "address": "RUE PIERRE ET JOSEPH DESAULT", "number": 13120, "city": "PARIS", "zip_code": "75013"}, {"name": "MALESHERBES PASQUIER", "longitude": 2.323288994791708, "latitude": 48.87042188343355, "address": "FA", "number": 8004, "city": "ALESHERBES - 75008 PARIS", "zip_code": "4"}, {"name": "PARC DE BELLEVILLE", "longitude": 2.384981390278095, "latitude": 48.87195626635528, "address": "30 RUE PIAT - 75020 PA", "number": 20113, "city": " PIAT - 75020 PARIS", "zip_code": "30"}, {"name": "AQUEDUC", "longitude": 2.367110644031659, "latitude": 48.88384326568884, "address": "80 RUE DE L'AQUEDUC - 75010 PA", "number": 10036, "city": " DE L'AQUEDUC - 75010 PARIS", "zip_code": "80"}, {"name": "PARIS 3 (CHARENTON)", "longitude": 2.405876723011083, "latitude": 48.8266572063246, "address": "136 RUE DE PARIS - 94220 CHAREN", "number": 42207, "city": "E DE PARIS - 94220 CHARENTON", "zip_code": "136"}, {"name": "VIVALDI", "longitude": 2.389728979467376, "latitude": 48.841923663276546, "address": "42 ALLEE VIVALDI - 75012 PA", "number": 12028, "city": "EE VIVALDI - 75012 PARIS", "zip_code": "42"}, {"name": "ST GERMAIN-DANTE", "longitude": 2.346076825913541, "latitude": 48.850977229793614, "address": "9 RUE DE DANTE - 75005 PA", "number": 5008, "city": "DE DANTE - 75005 PARIS", "zip_code": "9"}, {"name": "ALLEE PIERRE LAZAEFF", "longitude": 2.350844595287827, "latitude": 48.86614574652862, "address": "189 RUE SAINT DENIS - 75002 PA", "number": 2003, "city": "E SAINT DENIS - 75002 PARIS", "zip_code": "189"}, {"name": "COLONEL DRIANT", "longitude": 2.340169767017624, "latitude": 48.86343050194121, "address": "PLACE DU LIEUTENANT HENRI KARCHER", "number": 1026, "city": "PARIS", "zip_code": "75001"}, {"name": "JOURDAIN", "longitude": 2.389435908330615, "latitude": 48.87409248091576, "address": "3 RUE DU JOURDAIN - 75020 PA", "number": 20112, "city": "DU JOURDAIN - 75020 PARIS", "zip_code": "3"}, {"name": "MALAKOFF", "longitude": 2.283457593383419, "latitude": 48.87669268743692, "address": "161 AVENUE MALAKOFF - 75016 PA", "number": 16101, "city": "ENUE MALAKOFF - 75016 PARIS", "zip_code": "161"}, {"name": "LEGENDRE", "longitude": 2.32036786584418, "latitude": 48.8877723254283, "address": "83 RUE LEGENDRE - 75017 PA", "number": 17110, "city": " LEGENDRE - 75017 PARIS", "zip_code": "83"}, {"name": "AVIA", "longitude": 2.275342586850291, "latitude": 48.8296843300915, "address": "26 RUE DU COLONEL PIERRE AVIA - 75015 PA", "number": 15120, "city": " DU COLONEL PIERRE AVIA - 75015 PARIS", "zip_code": "26"}, {"name": "HOPITAL SAINT LOUIS", "longitude": 2.366669436984963, "latitude": 48.874794994841274, "address": "12 BIS RUE DE LA GRANGE AUX BELLES - 75010 PA", "number": 10114, "city": " RUE DE LA GRANGE AUX BELLES - 75010 PARIS", "zip_code": "12"}, {"name": "PORTE DE CHAMPERET", "longitude": 2.290781411279206, "latitude": 48.88561741628322, "address": "PLACE DE LA PORTE DE CHAMPERET", "number": 17031, "city": "PARIS", "zip_code": "75017"}, {"name": "BONAPARTE BEAUX ARTS", "longitude": 2.334797622948368, "latitude": 48.8564374096868, "address": "17 RUE DES BEAUX ARTS - 75006 PA", "number": 6021, "city": " DES BEAUX ARTS - 75006 PARIS", "zip_code": "17"}, {"name": "BOULAINVILLIERS", "longitude": 2.275188414671189, "latitude": 48.85615074338874, "address": "51 RUE DES VIGNES - 75016 PA", "number": 16031, "city": " DES VIGNES - 75016 PARIS", "zip_code": "51"}, {"name": "TRAKTIR", "longitude": 2.291508179426733, "latitude": 48.87279915599243, "address": "3 RUE TRAKTIR - 75016 PA", "number": 16103, "city": "TRAKTIR - 75016 PARIS", "zip_code": "3"}, {"name": "VAUGIRARD DESGOFFE", "longitude": 2.324240578144087, "latitude": 48.84612989154848, "address": "2 RUE BLAISE DESGOFFE - 75006 PA", "number": 6027, "city": "BLAISE DESGOFFE - 75006 PARIS", "zip_code": "2"}, {"name": "MONTAIGNE", "longitude": 2.307691605650344, "latitude": 48.86729323621449, "address": "25 RUE BAYARD - 75008 PA", "number": 8030, "city": " BAYARD - 75008 PARIS", "zip_code": "25"}, {"name": "MORLAND", "longitude": 2.363239868721318, "latitude": 48.84996003527753, "address": "17 BOULEVARD DU MORLAND - 75004 PA", "number": 4105, "city": "LEVARD DU MORLAND - 75004 PARIS", "zip_code": "17"}, {"name": "DAVOUT VOLGA", "longitude": 2.410522909779111, "latitude": 48.852919679957296, "address": "63 BOULEVARD DAVOUT / ANGLE 84 RUE VOLGA - 75020 PA", "number": 20044, "city": "LEVARD DAVOUT / ANGLE 84 RUE VOLGA - 75020 PARIS", "zip_code": "63"}, {"name": "CONSERVATION", "longitude": 2.41827234236864, "latitude": 48.82772523704757, "address": "ROUTE DE LA CEINTURE DU LAC DAUMESNIL", "number": 12120, "city": "PARIS", "zip_code": "75012"}, {"name": "FLANDRIN", "longitude": 2.272448647646471, "latitude": 48.86441140945903, "address": "2 BOULEVARD FLANDRIN - 75016 PA", "number": 16018, "city": "EVARD FLANDRIN - 75016 PARIS", "zip_code": "2"}, {"name": "NATIONALE BACH", "longitude": 2.364107053254628, "latitude": 48.830957464145705, "address": "150 RUE NATIONALE - 75013 PA", "number": 13042, "city": "E NATIONALE - 75013 PARIS", "zip_code": "150"}, {"name": "CHARLES DE GAULLE (NOGENT)", "longitude": 2.479464268709081, "latitude": 48.83648112918176, "address": "FACE ", "number": 41302, "city": "NUE CHARLES DE GAULLES - 94130 NOGENT SUR MARNE", "zip_code": "60"}, {"name": "COUTURIER 2 (LEVALLOIS)", "longitude": 2.293848017974069, "latitude": 48.89819702263572, "address": "109 RUE  PAUL VAILLANT COUTURIER - 92300 LEVALL", "number": 23004, "city": "E  PAUL VAILLANT COUTURIER - 92300 LEVALLOIS", "zip_code": "109"}, {"name": "CHAROLAIS", "longitude": 2.387564334932072, "latitude": 48.840869459702354, "address": "212 RUE DE CHARENTON - 75012 PA", "number": 12109, "city": "E DE CHARENTON - 75012 PARIS", "zip_code": "212"}, {"name": "VICTOIR CHAUSSEE D ANTIN", "longitude": 2.332036313368639, "latitude": 48.87518586417745, "address": "79 RUE DE LA VICTOIRE - 75009 PA", "number": 9030, "city": " DE LA VICTOIRE - 75009 PARIS", "zip_code": "79"}, {"name": "PECQUEUR", "longitude": 2.33817871442611, "latitude": 48.8896779050281, "address": "93 RUE CAULAINCOURT - 75018 PA", "number": 18017, "city": " CAULAINCOURT - 75018 PARIS", "zip_code": "93"}, {"name": "CHARTRES", "longitude": 2.35358041022707, "latitude": 48.88470686398326, "address": "22-24 RUE DE CHARTRES - 75018 PA", "number": 18107, "city": "RUE DE CHARTRES - 75018 PARIS", "zip_code": "22"}, {"name": "SEVRES LECOURBE", "longitude": 2.311085506094106, "latitude": 48.844838019227154, "address": "FA", "number": 15008, "city": "EVARD PASTEUR - 75015 PARIS", "zip_code": "4"}, {"name": "SEGUR ESTREES", "longitude": 2.309747615603337, "latitude": 48.85129433458901, "address": "23 AVENUE DE SEGUR - 75007 PA", "number": 7018, "city": "NUE DE SEGUR - 75007 PARIS", "zip_code": "23"}, {"name": "GRANDS MOULINS", "longitude": 2.396079008206681, "latitude": 48.89713005307456, "address": "RUE DE LA CLOTURE / ANGLE RUE DU DEBARCADERE", "number": 19044, "city": "PARIS", "zip_code": "75019"}, {"name": "VINAIGRIERS", "longitude": 2.359323613430623, "latitude": 48.873267841170026, "address": "58 RUE DES VINAIGRIERS - 75010 PA", "number": 10012, "city": " DES VINAIGRIERS - 75010 PARIS", "zip_code": "58"}, {"name": "PONT DE L'ALMA", "longitude": 2.302250344175951, "latitude": 48.86164049957625, "address": "3 AVENUE BOSQUET - 75007 PA", "number": 7022, "city": "UE BOSQUET - 75007 PARIS", "zip_code": "3"}, {"name": "CANDALE (PANTIN)", "longitude": 2.414307515111288, "latitude": 48.889485840195675, "address": "FACE ", "number": 35012, "city": " CANDALE - 93500 PANTIN", "zip_code": "12"}, {"name": "PONT NEUF - 14", "longitude": 2.344333545273837, "latitude": 48.860245194532624, "address": "14 RUE DU PONT NEUF - 75001 PA", "number": 1009, "city": " DU PONT NEUF - 75001 PARIS", "zip_code": "14"}, {"name": "ROLLET", "longitude": 2.293467119128608, "latitude": 48.83598100445596, "address": "1 PLACE HENRI ROLLET - 75015 PA", "number": 15051, "city": "E HENRI ROLLET - 75015 PARIS", "zip_code": "1"}, {"name": "STADE MARYSE HILSZ", "longitude": 2.412733641628248, "latitude": 48.851285276158144, "address": "26 RUE MARYSE HILSZ - 75020 PA", "number": 20107, "city": " MARYSE HILSZ - 75020 PARIS", "zip_code": "26"}, {"name": "CLICHY", "longitude": 2.326207175385489, "latitude": 48.883318044354574, "address": "10 BOULEVARD DES BATIGNOLLES SUR TPC - 75008 PA", "number": 8012, "city": "LEVARD DES BATIGNOLLES SUR TPC - 75008 PARIS", "zip_code": "10"}, {"name": "GAITE LYRIQUE", "longitude": 2.353660816249226, "latitude": 48.86749798940664, "address": "FA", "number": 3012, "city": "SALOMON DE CAUS - 75003 PARIS", "zip_code": "8"}, {"name": "BONNE NOUVELLE PROP2", "longitude": 2.351281636686514, "latitude": 48.870278078579595, "address": "2 RUE DE MAZAGRAN - 75010 PA", "number": 10105, "city": "DE MAZAGRAN - 75010 PARIS", "zip_code": "2"}, {"name": "HAVRE CAUMARTIN", "longitude": 2.328315742616178, "latitude": 48.872795019872605, "address": "FA", "number": 9033, "city": " CAUMARTIN - 75009 PARIS", "zip_code": "45"}, {"name": "ROMAIN ROLLAND", "longitude": 2.32300304092451, "latitude": 48.820323646126774, "address": "49-51 BD ROMAIN ROLLAND - 75014 PA", "number": 14116, "city": "BD ROMAIN ROLLAND - 75014 PARIS", "zip_code": "49"}, {"name": "MONTGALLET CHARENTON", "longitude": 2.386164927813738, "latitude": 48.84264777870052, "address": "2 RUE MONTGALLET - 75012 PA", "number": 12027, "city": "MONTGALLET - 75012 PARIS", "zip_code": "2"}, {"name": "EDISON", "longitude": 2.361069024089417, "latitude": 48.82902666973469, "address": "54 AVENUE EDISON - 75013 PA", "number": 13034, "city": "NUE EDISON - 75013 PARIS", "zip_code": "54"}, {"name": "BRUYERE PIGALLE", "longitude": 2.333709173337285, "latitude": 48.87939826447722, "address": "28 RUE J.B.PIGALLE - 75009 PA", "number": 9026, "city": " J.B.PIGALLE - 75009 PARIS", "zip_code": "28"}, {"name": "LEGENDRE", "longitude": 2.316473835914172, "latitude": 48.885437730894544, "address": "62 RUE LEGENDRE - 75017 PA", "number": 17013, "city": " LEGENDRE - 75017 PARIS", "zip_code": "62"}, {"name": "PARIS 2 (MONTREUIL)", "longitude": 2.422055733613231, "latitude": 48.85550131286469, "address": "175/179 RUE DE PARIS - 93100 MONTRE", "number": 31004, "city": "9 RUE DE PARIS - 93100 MONTREUIL", "zip_code": "175"}, {"name": "AUBER", "longitude": 2.329423494000903, "latitude": 48.87219025140095, "address": "3 RUE BOUDREAU - 75009 PA", "number": 9106, "city": "BOUDREAU - 75009 PARIS", "zip_code": "3"}, {"name": "MILLET - JEAN DE LA FONTAINE", "longitude": 2.272469482915694, "latitude": 48.85100487466529, "address": "12 RUE FRANCOIS MILLET - 75016 PA", "number": 16028, "city": " FRANCOIS MILLET - 75016 PARIS", "zip_code": "12"}, {"name": "LEIBNITZ", "longitude": 2.333390423834684, "latitude": 48.896328348515986, "address": "50 RUE LEIBNITZ - 75018 PA", "number": 18034, "city": " LEIBNITZ - 75018 PARIS", "zip_code": "50"}, {"name": "SAINT MICHEL HENRI BARBUSSE", "longitude": 2.339306721981416, "latitude": 48.84375698130157, "address": "1 RUE HENRI BARBUSSE - 75005 PA", "number": 5010, "city": "HENRI BARBUSSE - 75005 PARIS", "zip_code": "1"}, {"name": "DIDEROT BERCY", "longitude": 2.37040616152132, "latitude": 48.84618800146489, "address": "224 RUE DE BERCY - 75012 PA", "number": 12102, "city": "E DE BERCY - 75012 PARIS", "zip_code": "224"}, {"name": "POISSY", "longitude": 2.352970183602024, "latitude": 48.84969041137042, "address": "8-10 RUE DE POISSY - 75005 PA", "number": 5019, "city": "UE DE POISSY - 75005 PARIS", "zip_code": "8"}, {"name": "RUE MOLITOR", "longitude": 2.265724147895062, "latitude": 48.84509712653168, "address": "RUE MOLITOR", "number": 16038, "city": "PARIS", "zip_code": "75016"}, {"name": "LAFITTE ROSSINI", "longitude": 2.337980867701675, "latitude": 48.87334627510507, "address": "19 RUE ROSSINI - 75009 PA", "number": 9022, "city": " ROSSINI - 75009 PARIS", "zip_code": "19"}, {"name": "SAINT MAUR OBERKAMPF", "longitude": 2.376019912019568, "latitude": 48.86530798423503, "address": "80 RUE OBERKAMPF - 75011 PA", "number": 11030, "city": " OBERKAMPF - 75011 PARIS", "zip_code": "80"}, {"name": "BOIS DE BOULOGNE / PORTE DE LA MUETTE 2", "longitude": 2.267504683574771, "latitude": 48.863757931035046, "address": "AVENUE LOUIS BARTHOU / PLACE DE LA COLOMBIE", "number": 16130, "city": "PARIS", "zip_code": "75016"}, {"name": "MURS DU PARC (VINCENNES)", "longitude": 2.452237396596088, "latitude": 48.84696126017499, "address": "AVENUE DES MURS DU PARC", "number": 43009, "city": "VINCENNES", "zip_code": "94300"}, {"name": "FALGUIERE ARSONVAL", "longitude": 2.313117867297474, "latitude": 48.84040040365445, "address": "2 RUE D'ARSONVAL - 75015 PA", "number": 15113, "city": "D'ARSONVAL - 75015 PARIS", "zip_code": "2"}, {"name": "ILE DE LA CITE PONT NEUF", "longitude": 2.341747995157864, "latitude": 48.857091635218225, "address": "41 QUAI DE L'HORLOGE - 75001 PA", "number": 1001, "city": "I DE L'HORLOGE - 75001 PARIS", "zip_code": "41"}, {"name": "CLICHY", "longitude": 2.328807098192234, "latitude": 48.88412710804656, "address": "132 BOULEVARD DE CLICHY - 75018 PA", "number": 18044, "city": "ULEVARD DE CLICHY - 75018 PARIS", "zip_code": "132"}, {"name": "COUTURIER 1 (LEVALLOIS)", "longitude": 2.277618727223195, "latitude": 48.8936146524531, "address": "2 RUE PAUL VAILLANT COUTURIER - 92300 LEVALL", "number": 23001, "city": "PAUL VAILLANT COUTURIER - 92300 LEVALLOIS", "zip_code": "2"}, {"name": "MAC MAHON", "longitude": 2.294512536052928, "latitude": 48.877532084130166, "address": "18 AVENUE MARC MAHON - 75017 PA", "number": 17046, "city": "NUE MARC MAHON - 75017 PARIS", "zip_code": "18"}, {"name": "CIT\u00c3\u2030 DE LA MUSIQUE", "longitude": 2.39268612206715, "latitude": 48.8887860708258, "address": "FA", "number": 19018, "city": "ENUE JEAN JAURES - 75019 PARIS", "zip_code": "210"}, {"name": "VAILLANT COUTURIER", "longitude": 2.332609687921881, "latitude": 48.816980981259285, "address": "155 AVENUE PAUL VAILLANT COUTURIER - 75014 PA", "number": 14126, "city": "ENUE PAUL VAILLANT COUTURIER - 75014 PARIS", "zip_code": "155"}, {"name": "MICHEL ANGE AUTEUIL", "longitude": 2.265253821160005, "latitude": 48.84842761367387, "address": "85 RUE JEAN DE LA FONTAINE - 75016 PA", "number": 16033, "city": " JEAN DE LA FONTAINE - 75016 PARIS", "zip_code": "85"}, {"name": "DIDOT CHATEAU", "longitude": 2.3215, "latitude": 48.8337, "address": "13 RUE DIDOT - 75014 PA", "number": 14031, "city": " DIDOT - 75014 PARIS", "zip_code": "13"}, {"name": "MAISON DE RADIO FRANCE", "longitude": 2.277697269448623, "latitude": 48.851359912581465, "address": "1 RUE GROS - 75016 PA", "number": 16029, "city": "GROS - 75016 PARIS", "zip_code": "1"}, {"name": "WAGRAM (17EME ARR.)", "longitude": 2.305497444260642, "latitude": 48.8842894403224, "address": "RUE JOUFFROY D'ABBANS", "number": 17021, "city": "PARIS", "zip_code": "75017"}, {"name": "JAURES VILLETTE", "longitude": 2.37026248225988, "latitude": 48.881472498481, "address": "180 BOULEVARD DE LA VILLETTE - 75019 PA", "number": 19116, "city": "ULEVARD DE LA VILLETTE - 75019 PARIS", "zip_code": "180"}, {"name": "DIDEROT 2 (SAINT OUEN)", "longitude": 2.333910127129224, "latitude": 48.91157045930829, "address": "FA", "number": 34010, "city": "RUE DIDEROT- 93400 SAINT OUEN", "zip_code": "61"}, {"name": "PIERRET (NEUILLY)", "longitude": 2.260096983931875, "latitude": 48.883026659159576, "address": "33 RUE PIERRET - 92200 NEUILLY SUR SE", "number": 22006, "city": " PIERRET - 92200 NEUILLY SUR SEINE", "zip_code": "33"}, {"name": "LORRAINE", "longitude": 2.38246120055766, "latitude": 48.886335082615275, "address": "28 RUE DE LORRAINE - 75019 PA", "number": 19014, "city": " DE LORRAINE - 75019 PARIS", "zip_code": "28"}, {"name": "PLACE ADOLPHE CHERIOUX", "longitude": 2.300654459291639, "latitude": 48.839635080561905, "address": "18 PLACE ADOLPHE CHERIOUX - 75015 PA", "number": 15038, "city": "CE ADOLPHE CHERIOUX - 75015 PARIS", "zip_code": "18"}, {"name": "CHARONNE AVRON", "longitude": 2.398403047037931, "latitude": 48.85160266522164, "address": "48 BOULEVARD DE CHARONNE - 75011 PA", "number": 20043, "city": "LEVARD DE CHARONNE - 75011 PARIS", "zip_code": "48"}, {"name": "MENILMONTANT - PELLEPORT", "longitude": 2.398959602331646, "latitude": 48.87068263384462, "address": "164 RUE DE MENILMONTANT - 75020 PA", "number": 20036, "city": "E DE MENILMONTANT - 75020 PARIS", "zip_code": "164"}, {"name": "VERDIER (MONTROUGE)", "longitude": 2.317029863731327, "latitude": 48.815529633678416, "address": "AVENUE VERDIER ANGLE AVENUE DE LA REPUBLIQUE", "number": 21207, "city": "MONTROUGE", "zip_code": "92120"}, {"name": "DESAIX", "longitude": 2.293077029857222, "latitude": 48.852804604940296, "address": "23 RUE DESAIX - 75015 PA", "number": 15067, "city": " DESAIX - 75015 PARIS", "zip_code": "23"}, {"name": "LEPIC VERON", "longitude": 2.334617735640665, "latitude": 48.885257971348466, "address": "35 RUE VERON - 75018 PA", "number": 18114, "city": " VERON - 75018 PARIS", "zip_code": "35"}, {"name": "PLACE DE BUDAPEST", "longitude": 2.327339290714228, "latitude": 48.87775323400056, "address": "38 RUE DE LONDRES - 75009 PA", "number": 9035, "city": " DE LONDRES - 75009 PARIS", "zip_code": "38"}, {"name": "ABOUKIR", "longitude": 2.35018588824494, "latitude": 48.868660481539266, "address": "108 RUE D'ABOUKIR - 75002 PA", "number": 2016, "city": "E D'ABOUKIR - 75002 PARIS", "zip_code": "108"}, {"name": "JUSSIEU", "longitude": 2.353398379689353, "latitude": 48.847184641150214, "address": "41 RUE JUSSIEU - 75005 PA", "number": 5021, "city": " JUSSIEU - 75005 PARIS", "zip_code": "41"}, {"name": "MARCHE ST-PIERRE", "longitude": 2.344139285947184, "latitude": 48.88469160640549, "address": "PLACE SAINT PIERRE", "number": 18006, "city": "PARIS", "zip_code": "75018"}, {"name": "MAIRIE DU 4 EME", "longitude": 2.356381154873061, "latitude": 48.855965856210226, "address": "25 RUE DU PONT LOUIS PHILIPPE - 75004 PA", "number": 4015, "city": " DU PONT LOUIS PHILIPPE - 75004 PARIS", "zip_code": "25"}, {"name": "SAINT FARGEAU MORTIER", "longitude": 2.408203454302088, "latitude": 48.872747269036246, "address": "72 RUE SAINT-FARGEAU - 75020 PA", "number": 20117, "city": " SAINT-FARGEAU - 75020 PARIS", "zip_code": "72"}, {"name": "LOLIVE 1 (PANTIN)", "longitude": 2.409107737701187, "latitude": 48.892139409307205, "address": "104 AVENUE LOLIVE - 93500 PAN", "number": 35009, "city": "ENUE LOLIVE - 93500 PANTIN", "zip_code": "104"}, {"name": "MAIRIE DU 17EME", "longitude": 2.322206025347343, "latitude": 48.884101293163106, "address": "FA", "number": 17012, "city": " DES BATIGNOLLES - 75017 PARIS", "zip_code": "16"}, {"name": "SEINE FLANDRE", "longitude": 2.374719516795626, "latitude": 48.88679881177337, "address": "51 QUAI DE LA SEINE - 75019 PA", "number": 19029, "city": "I DE LA SEINE - 75019 PARIS", "zip_code": "51"}, {"name": "METZ", "longitude": 2.353521565011111, "latitude": 48.870893425955984, "address": "7 RUE DE METZ - 75010 PA", "number": 10004, "city": "DE METZ - 75010 PARIS", "zip_code": "7"}, {"name": "BOULEVARD MONTMARTRE", "longitude": 2.343163334385358, "latitude": 48.87077575727228, "address": "21 RUE D'UZES - 75002 PA", "number": 2010, "city": " D'UZES - 75002 PARIS", "zip_code": "21"}, {"name": "FONTAINE DOUAI", "longitude": 2.333263372748175, "latitude": 48.88235325984544, "address": "24 RUE DE DOUAI - 75009 PA", "number": 9027, "city": " DE DOUAI - 75009 PARIS", "zip_code": "24"}, {"name": "TEMPLE JEAN PIERRE TIMBAUD", "longitude": 2.366136374249966, "latitude": 48.86442014173202, "address": "18 BD DU TEMPLE - 75011 PA", "number": 11040, "city": "DU TEMPLE - 75011 PARIS", "zip_code": "18"},