[{"latitude": 48.8645278209514, "name": "CHAMPEAUX (BAGNOLET)", "number": 31705, "longitude": 2.416170724425901, "zip_code": "93170", "address": "RUE DES CHAMPEAUX (PRES DE LA GARE ROUTIERE)", "city": "BAGNOLET"}, {"latitude": 48.87242006305313, "name": "POISSONNI\u00c3\u02c6RE - ENGHIEN", "number": 10042, "longitude": 2.348395236282807, "zip_code": "52", "address": "52 RUE D'ENGHIEN / ANGLE RUE DU FAUBOURG POISSONIERE - 75010 PA", "city": " D'ENGHIEN / ANGLE RUE DU FAUBOURG POISSONIERE - 75010 PARIS"}, {"latitude": 48.882148945631904, "name": "METRO ROME", "number": 8020, "longitude": 2.319860054774211, "zip_code": "74", "address": "74 BOULEVARD DES BATIGNOLLES - 75008 PA", "city": "LEVARD DES BATIGNOLLES - 75008 PARIS"}, {"latitude": 48.8682170167744, "name": "RUE DE LA PAIX", "number": 1022, "longitude": 2.330493511399174, "zip_code": "37", "address": "37 RUE CASANOVA - 75001 PA", "city": " CASANOVA - 75001 PARIS"}, {"latitude": 48.893268664697416, "name": "DE GAULLE (PANTIN)", "number": 35014, "longitude": 2.412715733388685, "zip_code": "139", "address": "139 AVENUE JEAN LOLIVE / MAIL CHARLES DE GAULLE - 93500 PAN", "city": "ENUE JEAN LOLIVE / MAIL CHARLES DE GAULLE - 93500 PANTIN"}, {"latitude": 48.870393671603765, "name": "PARC DE BELLEVILLE", "number": 20040, "longitude": 2.384222472712587, "zip_code": "57", "address": "57 & 36 RUE JULIEN LACROIX - 75020 PA", "city": "6 RUE JULIEN LACROIX - 75020 PARIS"}, {"latitude": 48.884478, "name": "SOLJENITSYNE (PUTEAUX)", "number": 28002, "longitude": 2.24772065, "zip_code": "92800", "address": "BOULEVARD ALEXANDRE SOLJENITSYNE", "city": "PUTEAUX"}, {"latitude": 48.834658862792736, "name": "SERRES", "number": 15111, "longitude": 2.295789480315903, "zip_code": "48", "address": "48 RUE OLIVIER DE SERRES - 75015 PA", "city": " OLIVIER DE SERRES - 75015 PARIS"}, {"latitude": 48.839041145908176, "name": "PYRAMIDE ARTILLERIE", "number": 12124, "longitude": 2.437655339082955, "zip_code": "75012", "address": "ROUTE DE L'ARTILLERIE", "city": "PARIS"}, {"latitude": 48.877872278317966, "name": "SAINT GEORGES", "number": 9021, "longitude": 2.337446804203667, "zip_code": "56", "address": "56 RUE SAINT GEORGES - 75009 PA", "city": " SAINT GEORGES - 75009 PARIS"}, {"latitude": 48.85971010443503, "name": "MUS\u00c3\u2030E D'ORSAY", "number": 7007, "longitude": 2.325809024625026, "zip_code": "62", "address": "62 RUE DE LILLE - 75007 PA", "city": " DE LILLE - 75007 PARIS"}, {"latitude": 48.85550135398888, "name": "PYR\u00c3\u2030N\u00c3\u2030ES-DAGORNO", "number": 20011, "longitude": 2.405168520639166, "zip_code": "103", "address": "103 RUE DES PYRENNEES - 75020 PA", "city": "E DES PYRENNEES - 75020 PARIS"}, {"latitude": 48.844730256132095, "name": "SAINT JACQUES GAY LUSSAC", "number": 5005, "longitude": 2.341923944866407, "zip_code": "27", "address": "27 RUE GAY LUSSAC - 75005 PA", "city": " GAY LUSSAC - 75005 PARIS"}, {"latitude": 48.910143671003794, "name": "KARMAN (AUBERVILLIERS)", "number": 33006, "longitude": 2.385052018244114, "zip_code": "143", "address": "FA", "city": "E ANDRE KARMAN - 93300 AUBERVILLIERS"}, {"latitude": 48.86008832610481, "name": "BEAUBOURG PLACE MICHELET", "number": 4020, "longitude": 2.350148335920203, "zip_code": "27", "address": "FA", "city": " QUINCAMPOIX - 75004 PARIS"}, {"latitude": 48.8666176586814, "name": "MENILMONTANT OBERKAMPF", "number": 11029, "longitude": 2.38301344041578, "zip_code": "137", "address": "137 BOULEVARD MENILMONTANT - 75011 PA", "city": "ULEVARD MENILMONTANT - 75011 PARIS"}, {"latitude": 48.854268334051035, "name": "CITE VANEAU", "number": 7012, "longitude": 2.319454010061415, "zip_code": "7", "address": "7 CITE VANEAU - 75007 PA", "city": " VANEAU - 75007 PARIS"}, {"latitude": 48.886389634924626, "name": "PETIT HONNEGER", "number": 19019, "longitude": 2.393637514433606, "zip_code": "124", "address": "124 RUE PETIT - 75019 PA", "city": "E PETIT - 75019 PARIS"}, {"latitude": 48.83512886504287, "name": "ARAGO 2", "number": 14113, "longitude": 2.34157863455693, "zip_code": "36", "address": "36 RUE DE LA SANTE - 75014 PA", "city": " DE LA SANTE - 75014 PARIS"}, {"latitude": 48.851396721123486, "name": "DUPLEIX", "number": 15028, "longitude": 2.291889313228121, "zip_code": "54", "address": "54 BOULEVARD DE GRENELLE - 75015 PA", "city": "LEVARD DE GRENELLE - 75015 PARIS"}, {"latitude": 48.8842989293728, "name": "DE GAULLE 3 (NEUILLY)", "number": 22005, "longitude": 2.26099177209953, "zip_code": "195", "address": "195 AVENUE CHARLES DE GAULLE - 92200 NEUI", "city": "ENUE CHARLES DE GAULLE - 92200 NEUILLY"}, {"latitude": 48.8691543609174, "name": "PORTE DE MENILMONTANT", "number": 20027, "longitude": 2.40932246879487, "zip_code": "1", "address": "1 rue Vidal de la Blache / Angle 78 boulevard Mortier - 75020 PA", "city": "Vidal de la Blache / Angle 78 boulevard Mortier - 75020 PARIS"}, {"latitude": 48.882728090545086, "name": "PIGALLE GERMAIN PILLON", "number": 18042, "longitude": 2.336262639016585, "zip_code": "36", "address": "FA", "city": "LEVARD DE CLICHY - 75018 PARIS"}, {"latitude": 48.850379753879935, "name": "FAIDHERBE CHALIGNY", "number": 11008, "longitude": 2.38386933547444, "zip_code": "223", "address": "223 RUE DU FAUBOURG SAINT ANTOINE - 75011 PA", "city": "E DU FAUBOURG SAINT ANTOINE - 75011 PARIS"}, {"latitude": 48.8755503947562, "name": "JOURDAIN", "number": 19038, "longitude": 2.389038160847546, "zip_code": "9", "address": "9 RUE LASSUS - 75019 PA", "city": "LASSUS - 75019 PARIS"}, {"latitude": 48.824695995415006, "name": "IVRY BAUDICOURT", "number": 13037, "longitude": 2.363106073577468, "zip_code": "76", "address": "76 AVENUE D'IVRY - 75013 PA", "city": "NUE D'IVRY - 75013 PARIS"}, {"latitude": 48.819941965677195, "name": "PORTE DE CHOISY", "number": 13040, "longitude": 2.36507858638901, "zip_code": "111", "address": "111 BOULEVARD MASSENA - 75013 PA", "city": "ULEVARD MASSENA - 75013 PARIS"}, {"latitude": 48.85286124871689, "name": "JASMIN", "number": 16027, "longitude": 2.268483570651513, "zip_code": "79", "address": "79 AV MOZART- 75016 PA", "city": "MOZART- 75016 PARIS"}, {"latitude": 48.84319882807092, "name": "PLACE BIENVENUE", "number": 15118, "longitude": 2.322257377279243, "zip_code": "11", "address": "11 RUE DE L'ARRIVEE - 75015 PA", "city": " DE L'ARRIVEE - 75015 PARIS"}, {"latitude": 48.84479928858768, "name": "NOTRE DAME DES CHAMPS", "number": 6006, "longitude": 2.329337755887181, "zip_code": "41", "address": "41 RUE NOTRE DAME DES CHAMPS - 75006 PA", "city": " NOTRE DAME DES CHAMPS - 75006 PARIS"}, {"latitude": 48.8571433920909, "name": "BAGNOLET-ORTEAUX", "number": 20015, "longitude": 2.398472, "zip_code": "44", "address": "44 BIS RUE DE BAGNOLET - 75020 PA", "city": " RUE DE BAGNOLET - 75020 PARIS"}, {"latitude": 48.882633484310816, "name": "SQUARE D'ANVERS", "number": 9005, "longitude": 2.344884406212207, "zip_code": "95", "address": "95 RUE DE DUNKERQUE - 75009 PA", "city": " DE DUNKERQUE - 75009 PARIS"}, {"latitude": 48.86970884795243, "name": "ROND POINT DES CHAMPS ELYSEES", "number": 8031, "longitude": 2.310714655374236, "zip_code": "2", "address": "2 RUE JEAN MERMOZ - 75008 PA", "city": "JEAN MERMOZ - 75008 PARIS"}, {"latitude": 48.846964359503055, "name": "NATION PICPUS", "number": 12015, "longitude": 2.399868277428793, "zip_code": "67", "address": "FA", "city": "LEVARD DE PICPUS - 75012 PARIS"}, {"latitude": 48.82195530645611, "name": "JOURDAN BARBOUX", "number": 14120, "longitude": 2.326806869905884, "zip_code": "7", "address": "7 RUE HENRI BARBOUX - 75014 PA", "city": "HENRI BARBOUX - 75014 PARIS"}, {"latitude": 48.87983122511022, "name": "CONDORCET", "number": 9007, "longitude": 2.345396338986368, "zip_code": "34", "address": "34 RUE CONDORCET - 75009 PA", "city": " CONDORCET - 75009 PARIS"}, {"latitude": 48.881149033952994, "name": "VICTOR MASSE", "number": 9019, "longitude": 2.336681004295117, "zip_code": "38", "address": "38 RUE VICTOR MASSE - 75009 PA", "city": " VICTOR MASSE - 75009 PARIS"}, {"latitude": 48.83411714783768, "name": "MONCLAR", "number": 15040, "longitude": 2.308850015466539, "zip_code": "33", "address": "33 BIS RUE SAINT AMAND - 75015 PA", "city": " RUE SAINT AMAND - 75015 PARIS"}, {"latitude": 48.82122766331853, "name": "LIART AMIRAL MOUCHEZ", "number": 14013, "longitude": 2.342104214557966, "zip_code": "1", "address": "1 RUE LIARD - 75014 PA", "city": "LIARD - 75014 PARIS"}, {"latitude": 48.823963252286866, "name": "NECKER (CHARENTON)", "number": 42201, "longitude": 2.399998420132992, "zip_code": "94220", "address": "RUE NECKER/ RUE DU PORT AUX LIONS", "city": "CHARENTON"}, {"latitude": 48.865745077094815, "name": "TEMPLE REPUBLIQUE", "number": 11038, "longitude": 2.365312950780227, "zip_code": "44", "address": "44 BD DU TEMPLE - 75011 PA", "city": "DU TEMPLE - 75011 PARIS"}, {"latitude": 48.891877957087424, "name": "MONTCALM", "number": 18019, "longitude": 2.335447427689794, "zip_code": "2", "address": "2 RUE MONTCALM - 75018 PA", "city": "MONTCALM - 75018 PARIS"}, {"latitude": 48.898773792804256, "name": "PORCHE POUCHET", "number": 17008, "longitude": 2.322478477864687, "zip_code": "7", "address": "7 PLACE ARNAUD TZANCK - 75017 PA", "city": "E ARNAUD TZANCK - 75017 PARIS"}, {"latitude": 48.86138, "name": "PORT SOLF\u00c3\u2030RINO (STATION MOBILE)", "number": 901, "longitude": 2.32442, "zip_code": "75007", "address": "QUAI ANATOLE FRANCE - PONT SOLFERINO", "city": "PARIS"}, {"latitude": 48.84629491826888, "name": "JAVEL", "number": 15064, "longitude": 2.278413912593796, "zip_code": "5", "address": "D", "city": "UE EMILE ZOLA - 75015 PARIS"}, {"latitude": 48.835138050689515, "name": "LAME", "number": 12031, "longitude": 2.385478486564838, "zip_code": "49", "address": "49 RUE GABRIEL LAME - 75012 PA", "city": " GABRIEL LAME - 75012 PARIS"}, {"latitude": 48.82603516605852, "name": "BOUSSINGAULT - TOLBIAC", "number": 13021, "longitude": 2.342176808004326, "zip_code": "55", "address": "55 RUE BOUSSINGAULT - 75013 PA", "city": " BOUSSINGAULT - 75013 PARIS"}, {"latitude": 48.90259224163092, "name": "PERI (SAINT OUEN)", "number": 34002, "longitude": 2.330513564840273, "zip_code": "128", "address": "128 AVENUE GABRIEL PERI / AVENUE DU CAPITAINE GLAMER - 93400 SAINT O", "city": "ENUE GABRIEL PERI / AVENUE DU CAPITAINE GLAMER - 93400 SAINT OUEN"}, {"latitude": 48.865021945810085, "name": "MONTORGUEIL RUE MONTMARTRE VERSION 2", "number": 2005, "longitude": 2.345068440144759, "zip_code": "46", "address": "46 RUE DE MONTMARTRE - 75002 PA", "city": " DE MONTMARTRE - 75002 PARIS"}, {"latitude": 48.8827499154713, "name": "MICHELIS (NEUILLY)", "number": 22012, "longitude": 2.27740638127753, "zip_code": "32", "address": "32 RUE DE MADELEINE MICHELIS - 92200 NEUI", "city": " DE MADELEINE MICHELIS - 92200 NEUILLY"}, {"latitude": 48.841916179825965, "name": "BUFFON", "number": 5104, "longitude": 2.358912681317667, "zip_code": "47", "address": "47 RUE BUFFON - 75005 PA", "city": " BUFFON - 75005 PARIS"}, {"latitude": 48.857702134021, "name": "VINCENNES (MONTREUIL)", "number": 31008, "longitude": 2.43736866129498, "zip_code": "7", "address": "7 BIS RUE DE VINCENNES - 93100 MONTRE", "city": "RUE DE VINCENNES - 93100 MONTREUIL"}, {"latitude": 48.84214433157821, "name": "BOUCICAUT", "number": 15062, "longitude": 2.285862655943941, "zip_code": "87", "address": "87 RUE DE LA CONVENTION - 75015 PA", "city": " DE LA CONVENTION - 75015 PARIS"}, {"latitude": 48.85579663740384, "name": "ECOUFFES RIVOLI", "number": 4012, "longitude": 2.357907882135172, "zip_code": "2", "address": "2 RUE TIRON - 75004 PA", "city": "TIRON - 75004 PARIS"}, {"latitude": 48.86558419108518, "name": "TURBIGO", "number": 3011, "longitude": 2.356278447633629, "zip_code": "55", "address": "55 RUE TURBIGO - 75003 PA", "city": " TURBIGO - 75003 PARIS"}, {"latitude": 48.8569749400317, "name": "RUE SAINT BLAISE", "number": 20017, "longitude": 2.408842457406961, "zip_code": "69", "address": "69 RUE SAINT BLAISE - 75020 PA", "city": " SAINT BLAISE - 75020 PARIS"}, {"latitude": 48.89405725132698, "name": "VAUVENARGUES", "number": 18028, "longitude": 2.332199335980013, "zip_code": "195", "address": "195 RUE CHAMPIONNET - 75018 PA", "city": "E CHAMPIONNET - 75018 PARIS"}, {"latitude": 48.83976, "name": "GARE DE BERCY", "number": 12024, "longitude": 2.38241, "zip_code": "75012", "address": "GARE DE BERCY - ANGLE RUE CORBINEAU", "city": "PARIS"}, {"latitude": 48.86651607982108, "name": "REPUBLIQUE FERRY", "number": 11113, "longitude": 2.369322530407524, "zip_code": "140", "address": "FA", "city": "ULEVARD RICHARD LENOIR - 75011 PARIS"}, {"latitude": 48.827600424128306, "name": "NATIONALE (BOULOGNE-BILLANCOURT)", "number": 21015, "longitude": 2.241835191324587, "zip_code": "39", "address": "39 RUE NATIONALE - 92100 BOULOGNE-BILLANCO", "city": " NATIONALE - 92100 BOULOGNE-BILLANCOURT"}, {"latitude": 48.8185, "name": "JEAN FERRAT (IVRY)", "number": 42015, "longitude": 2.37427, "zip_code": "94200", "address": "PLACE JEAN FERRAT", "city": "IVRY"}, {"latitude": 48.850310432924466, "name": "SAINT JACQUES", "number": 5002, "longitude": 2.345015835298588, "zip_code": "20", "address": "20 RUE SOMMERARD - 75005 PA", "city": " SOMMERARD - 75005 PARIS"}, {"latitude": 48.87277815648997, "name": "BELLEVILLE", "number": 10040, "longitude": 2.376348394645978, "zip_code": "8", "address": "8 BOULEVARD DE LA VILETTE - 75010 PA", "city": "EVARD DE LA VILETTE - 75010 PARIS"}, {"latitude": 48.83484845292942, "name": "AURIOL CHEVALERET", "number": 13018, "longitude": 2.366826499627087, "zip_code": "1", "address": "1 RUE BRUANT - 75013 PA", "city": "BRUANT - 75013 PARIS"}, {"latitude": 48.823316172177535, "name": "PLACE HENOCQUE VERSION 2", "number": 13026, "longitude": 2.35433694417225, "zip_code": "21", "address": "21 RUE DU DR LERAY ET LANDOUZY - 75013 PA", "city": " DU DR LERAY ET LANDOUZY - 75013 PARIS"}, {"latitude": 48.876468339733144, "name": "PLACE DES FETES", "number": 19028, "longitude": 2.392284629788502, "zip_code": "17", "address": "17 RUE DES FETES - 75019 PA", "city": " DES FETES - 75019 PARIS"}, {"latitude": 48.8707649818776, "name": "CITE RIVERIN", "number": 10008, "longitude": 2.35872446227434, "zip_code": "12", "address": "12 RUE CITE RIVERIN / ANGLE RUE DU CHATEAU D'EAU - 75010 PA", "city": " CITE RIVERIN / ANGLE RUE DU CHATEAU D'EAU - 75010 PARIS"}, {"latitude": 48.853751073467855, "name": "MAZET SAINT ANDRE DES ARTS", "number": 6015, "longitude": 2.339113722899687, "zip_code": "10", "address": "10 RUE ANDRE MAZET - 75006 PA", "city": " ANDRE MAZET - 75006 PARIS"}, {"latitude": 48.841486856300165, "name": "MINIMES (VINCENNES)", "number": 43006, "longitude": 2.430793451133684, "zip_code": "30", "address": "30 AVENUE DES MINIMES - 94300 VINCEN", "city": "NUE DES MINIMES - 94300 VINCENNES"}, {"latitude": 48.83797034201205, "name": "CHANDON", "number": 15054, "longitude": 2.287582307043615, "zip_code": "293", "address": "293 RUE LECOURBE - 75015 PA", "city": "E LECOURBE - 75015 PARIS"}, {"latitude": 48.862650300140295, "name": "CIRQUE D HIVER", "number": 11043, "longitude": 2.367053490449912, "zip_code": "75011", "address": "PLACE PASDELOUP", "city": "PARIS"}, {"latitude": 48.84273504298964, "name": "PLACE MONGE", "number": 5024, "longitude": 2.352472437223356, "zip_code": "4", "address": "4 RUE DOLOMIEU - 75005 PA", "city": "DOLOMIEU - 75005 PARIS"}, {"latitude": 48.84307638694992, "name": "LAMBERT", "number": 15036, "longitude": 2.29514141310447, "zip_code": "102", "address": "102 RUE DE LA CROIX NIVERT - 75015 PA", "city": "E DE LA CROIX NIVERT - 75015 PARIS"}, {"latitude": 48.81444017962381, "name": "MALON (GENTILLY)", "number": 42504, "longitude": 2.341070654172592, "zip_code": "59", "address": "FA", "city": " BENOIT MALON - 94250 GENTILLY"}, {"latitude": 48.85024108719566, "name": "CHERCHE MIDI", "number": 6107, "longitude": 2.327551549210571, "zip_code": "29", "address": "29 RUE DU CHERCHE MIDI - 75006 PA", "city": " DU CHERCHE MIDI - 75006 PARIS"}, {"latitude": 48.88141110121936, "name": "PLACE AIM\u00c3\u2030E MAILLART", "number": 17029, "longitude": 2.29482820074442, "zip_code": "29", "address": "29 RUE PIERRE DEMOURS - 75017 PA", "city": " PIERRE DEMOURS - 75017 PARIS"}, {"latitude": 48.828369893809565, "name": "QUAI PANHARD ET LEVASSOR", "number": 13050, "longitude": 2.384440354604646, "zip_code": "23", "address": "23 QUAI PANHARD ET LEVASSOR - 75013 PA", "city": "I PANHARD ET LEVASSOR - 75013 PARIS"}, {"latitude": 48.879505265624786, "name": "TOUDOUZE CLAUZEL", "number": 9020, "longitude": 2.337190639271711, "zip_code": "27", "address": "FA", "city": " CLAUZEL - 75009 PARIS"}, {"latitude": 48.83425924993043, "name": "GERGOVIE VERCINGETORIX", "number": 14029, "longitude": 2.313391647113252, "zip_code": "112", "address": "112 RUE VERCINGETORIX - 75014 PA", "city": "E VERCINGETORIX - 75014 PARIS"}, {"latitude": 48.88072668576597, "name": "PLACE DE ROUBAIX", "number": 10029, "longitude": 2.351464333201903, "zip_code": "39", "address": "39 RUE DE DUNKERQUE - 75010 PA", "city": " DE DUNKERQUE - 75010 PARIS"}, {"latitude": 48.88291108953936, "name": "ROCHECHOUART GERANDO", "number": 9004, "longitude": 2.346319371627125, "zip_code": "19", "address": "19 RUE GUERANDO - 75009 PA", "city": " GUERANDO - 75009 PARIS"}, {"latitude": 48.874112916506824, "name": "RECOLLETS", "number": 10015, "longitude": 2.362498528696257, "zip_code": "46", "address": "46 RUE LUCIE SAMPAIX - 75010 PA", "city": " LUCIE SAMPAIX - 75010 PARIS"}, {"latitude": 48.84892295818577, "name": "VAUGIRARD PRINCE", "number": 6029, "longitude": 2.341040508705961, "zip_code": "1", "address": "FA", "city": "DE VAUGIRARD - 75006 PARIS"}, {"latitude": 48.8455150897939, "name": "GARE DE LYON", "number": 12151, "longitude": 2.3726498446286, "zip_code": "75012", "address": "GARE DE LYON", "city": "PARIS"}, {"latitude": 48.842577100515385, "name": "GARE DE REUILLY", "number": 12019, "longitude": 2.397249990597384, "zip_code": "58", "address": "58 RUE DE LA GARE DE REUILLY - 75012 PA", "city": " DE LA GARE DE REUILLY - 75012 PARIS"}, {"latitude": 48.820226792619714, "name": "PLACE DU DOCTEUR YERSIN", "number": 13116, "longitude": 2.372209309645734, "zip_code": "5", "address": "FA", "city": "UE DE LA PORTE D'IVRY - 75013 PARIS"}, {"latitude": 48.87927519569598, "name": "MANIN SECRETAN", "number": 19114, "longitude": 2.378637021920256, "zip_code": "31", "address": "31 RUE MANIN - 75019 PA", "city": " MANIN - 75019 PARIS"}, {"latitude": 48.873760472140056, "name": "MIROMESNIL", "number": 8025, "longitude": 2.315876308346374, "zip_code": "39", "address": "39 RUE DE MIROMESNIL - 75008 PA", "city": " DE MIROMESNIL - 75008 PARIS"}, {"latitude": 48.83568044417256, "name": "DAGUERRE GASSENDI", "number": 14033, "longitude": 2.328290822051698, "zip_code": "31", "address": "31 RUE FRODEVAUX - 75014 PA", "city": " FRODEVAUX - 75014 PARIS"}, {"latitude": 48.87944136963256, "name": "MONTROSIER (NEUILLY)", "number": 22011, "longitude": 2.278535717122779, "zip_code": "7", "address": "7 RUE MONTROSIER - 92200 NEUI", "city": "MONTROSIER - 92200 NEUILLY"}, {"latitude": 48.835545043575955, "name": "PORTE DOREE", "number": 12032, "longitude": 2.40745551592605, "zip_code": "1", "address": "1 PLACE EDOUARD RENARD - 75012 PA", "city": "E EDOUARD RENARD - 75012 PARIS"}, {"latitude": 48.8609983661382, "name": "OCTAVE FEUILLET", "number": 16110, "longitude": 2.27312852713658, "zip_code": "4", "address": "4-6 RUE OCTAVE FEUILLET - 75016 PA", "city": "E OCTAVE FEUILLET - 75016 PARIS"}, {"latitude": 48.84766571002937, "name": "MIRABEAU", "number": 16030, "longitude": 2.273556264965371, "zip_code": "4", "address": "4 PLACE DE BARCELONE - 75016 PA", "city": "E DE BARCELONE - 75016 PARIS"}, {"latitude": 48.83217944426036, "name": "PORTE DE VERSAILLES", "number": 15049, "longitude": 2.287122261982559, "zip_code": "2", "address": "2 AVENUE ERNEST RENAN - 75015 PA", "city": "UE ERNEST RENAN - 75015 PARIS"}, {"latitude": 48.83373383017729, "name": "FARMAN", "number": 15042, "longitude": 2.271396472461431, "zip_code": "61", "address": "61 RUE HENRY FARMAN - 75015 PA", "city": " HENRY FARMAN - 75015 PARIS"}, {"latitude": 48.88270064422199, "name": "LALLY TOLLENDAL", "number": 19012, "longitude": 2.37469338894231, "zip_code": "5", "address": "5 RUE LALLY TOLLENDAL - 75019 PA", "city": "LALLY TOLLENDAL - 75019 PARIS"}, {"latitude": 48.82824349415854, "name": "SEINE (BOULOGNE-BILLANCOURT)", "number": 21018, "longitude": 2.250657739639016, "zip_code": "13", "address": "FACE ", "city": " DE LA SEINE - 92100 BOULOGNE-BILLANCOURT"}, {"latitude": 48.83922209776229, "name": "LECOURBE", "number": 15053, "longitude": 2.291540507948998, "zip_code": "250", "address": "250 RUE LECOURBE - 75015 PA", "city": "E LECOURBE - 75015 PARIS"}, {"latitude": 48.893400392981874, "name": "DAMREMONT ORDENER", "number": 18027, "longitude": 2.336266523912805, "zip_code": "102", "address": "102 RUE DAMREMONT - 75018 PA", "city": "E DAMREMONT - 75018 PARIS"}, {"latitude": 48.850297010217595, "name": "MEZIERES RENNES", "number": 6103, "longitude": 2.330446820277252, "zip_code": "16", "address": "16 RUE DE MEZIERES - 75006 PA", "city": " DE MEZIERES - 75006 PARIS"}, {"latitude": 48.816929720561234, "name": "BROSSOLETTE (IVRY)", "number": 42006, "longitude": 2.381460319184223, "zip_code": "23", "address": "23 RUE PIERRE BROSSOLETTE - 94200 I", "city": " PIERRE BROSSOLETTE - 94200 IVRY"}, {"latitude": 48.894151383293696, "name": "PORTE DE CLICHY FRAGONARD", "number": 17011, "longitude": 2.314678001115381, "zip_code": "4", "address": "4 RUE FRAGONARD - 75017 PA", "city": "FRAGONARD - 75017 PARIS"}, {"latitude": 48.85293041059132, "name": "SAINT MICHEL DANTON", "number": 6020, "longitude": 2.342657392891206, "zip_code": "2", "address": "2 RUE DANTON - 75006 PA", "city": "DANTON - 75006 PARIS"}, {"latitude": 48.854176040414856, "name": "ALEXANDRE DUMAS", "number": 11017, "longitude": 2.396093495321842, "zip_code": "77", "address": "FA", "city": "LEVARD DE CHARONNE - 75011 PARIS"}, {"latitude": 48.837549292197465, "name": "DENFERT-ROCHEREAU CASSINI", "number": 14111, "longitude": 2.335983030466524, "zip_code": "18", "address": "18 RUE CASSINI - 75014 PA", "city": " CASSINI - 75014 PARIS"}, {"latitude": 48.86793796309799, "name": "METALLOS", "number": 11032, "longitude": 2.377885515684799, "zip_code": "81", "address": "81 BIS RUE JP TIMBAUD - 75011 PA", "city": " RUE JP TIMBAUD - 75011 PARIS"}, {"latitude": 48.8993483537726, "name": "PETIT (CLICHY)", "number": 21113, "longitude": 2.29662648341284, "zip_code": "2", "address": "2 RUE PETIT - 92110 CLI", "city": "PETIT - 92110 CLICHY"}, {"latitude": 48.86343198963591, "name": "RICHARD LENOIR VOLTAIRE NORD", "number": 11044, "longitude": 2.37120861796012, "zip_code": "104", "address": "FA", "city": "ULEVARD RICHARD LENOIR - 75011 PARIS"}, {"latitude": 48.85804405694242, "name": "CHEMIN VERT BEAUMARCHAIS", "number": 3001, "longitude": 2.367832659296124, "zip_code": "69", "address": "69 BOULEVARD BEAUMARCHAIS - 75003 PA", "city": "LEVARD BEAUMARCHAIS - 75003 PARIS"}, {"latitude": 48.85352868594103, "name": "RASSELINS", "number": 20133, "longitude": 2.409615362775532, "zip_code": "2", "address": "2 RUE DES RASSELINS - 75020 PA", "city": "DES RASSELINS - 75020 PARIS"}, {"latitude": 48.822632842232245, "name": "BOUTROUX VITRY", "number": 13047, "longitude": 2.377738433657617, "zip_code": "1", "address": "1 AVENUE BOUTROUX - 75013 PA", "city": "UE BOUTROUX - 75013 PARIS"}, {"latitude": 48.905269629379745, "name": "MAAR (SAINT OUEN)", "number": 34009, "longitude": 2.322171248688672, "zip_code": "93400", "address": "RUE DORA MAAR / GARE RER", "city": "SAINT OUEN"}, {"latitude": 48.85384822621097, "name": "BASTILLE RICHARD LENOIR", "number": 11001, "longitude": 2.369701488217501, "zip_code": "2", "address": "2 BOULEVARD RICHARD LENOIR - 75011 PA", "city": "EVARD RICHARD LENOIR - 75011 PARIS"}, {"latitude": 48.86240121191442, "name": "ARCHIVES PASTOURELLE", "number": 3007, "longitude": 2.359447031946381, "zip_code": "67", "address": "67 RUE DES ARCHIVES - 75003 PA", "city": " DES ARCHIVES - 75003 PARIS"}, {"latitude": 48.87660117136262, "name": "SQUARE MONTHOLON", "number": 9009, "longitude": 2.345785516803243, "zip_code": "26", "address": "26 RUE MONTHOLON - 75009 PA", "city": " MONTHOLON - 75009 PARIS"}, {"latitude": 48.86314, "name": "CONCORDE/BERGES DE SEINE (STATION MOBILE)", "number": 905, "longitude": 2.31669, "zip_code": "75007", "address": "QUAI D'ORSAY - CONCORDE", "city": "PARIS"}, {"latitude": 48.841325259808, "name": "VAUGIRARD", "number": 15115, "longitude": 2.31829155159271, "zip_code": "25", "address": "25-31 BOULEVARD DE VAUGIRARD - 75015 PA", "city": "BOULEVARD DE VAUGIRARD - 75015 PARIS"}, {"latitude": 48.84838576471672, "name": "MUTUALITE", "number": 5018, "longitude": 2.350169939020645, "zip_code": "20", "address": "20 RUE MONGE - 75005 PA", "city": " MONGE - 75005 PARIS"}, {"latitude": 48.89633193166097, "name": "DELIZY (PANTIN)", "number": 35006, "longitude": 2.409087652725976, "zip_code": "23", "address": "FACE ", "city": " DELIZY - 93500 PANTIN"}, {"latitude": 48.878113787876, "name": "ATHENES CLICHY", "number": 9036, "longitude": 2.32956021945824, "zip_code": "4", "address": "4 RUE D'ATHENES - 75009 PA", "city": "D'ATHENES - 75009 PARIS"}, {"latitude": 48.855501357701705, "name": "BEAUMARCHAIS", "number": 4107, "longitude": 2.368429069929045, "zip_code": "27", "address": "27 BOULEVARD BEAUMARCHAIS - 75004 PA", "city": "LEVARD BEAUMARCHAIS - 75004 PARIS"}, {"latitude": 48.88310390458221, "name": "BATIGNOLLES", "number": 17050, "longitude": 2.323834749088381, "zip_code": "1", "address": "1 RUE DES BATIGNOLLES - 75017 PA", "city": "DES BATIGNOLLES - 75017 PARIS"}, {"latitude": 48.8425479496716, "name": "ULM ERASME", "number": 5013, "longitude": 2.344596649931604, "zip_code": "13", "address": "13 RUE ERASME - 75005 PA", "city": " ERASME - 75005 PARIS"}, {"latitude": 48.87541242186098, "name": "PORTE DES LILAS", "number": 20110, "longitude": 2.4059603311549, "zip_code": "241", "address": "FA", "city": "ENUE GAMBETTA - 75020 PARIS"}, {"latitude": 48.83772792097816, "name": "PORT ROYAL", "number": 13001, "longitude": 2.344664043426302, "zip_code": "51", "address": "51 BOULEVARD PORT ROYAL - 75013 PA", "city": "LEVARD PORT ROYAL - 75013 PARIS"}, {"latitude": 48.83772768745433, "name": "SAINT MARCEL", "number": 13103, "longitude": 2.360460336476805, "zip_code": "89", "address": "89 BOULEVARD DE L'HOPITAL - 75013 PA", "city": "LEVARD DE L'HOPITAL - 75013 PARIS"}, {"latitude": 48.881161983577115, "name": "MONCEAU", "number": 17018, "longitude": 2.30951238050775, "zip_code": "4", "address": "4 RUE DE THANN - 75017 PA", "city": "DE THANN - 75017 PARIS"}, {"latitude": 48.873929200033544, "name": "HORNET (BAGNOLET)", "number": 31704, "longitude": 2.427933579778934, "zip_code": "1", "address": "FACE ", "city": "JEANNE HORNET - 93170 BAGNOLET"}, {"latitude": 48.857203787697095, "name": "HOTEL DE VILLE", "number": 4103, "longitude": 2.353976273618783, "zip_code": "1", "address": "1 RUE DES ARCHIVES - 75004 PA", "city": "DES ARCHIVES - 75004 PARIS"}, {"latitude": 48.82584693469992, "name": "GRENIER (BOULOGNE-BILLANCOURT)", "number": 21013, "longitude": 2.248821391087721, "zip_code": "4", "address": "4 AVENUE PIERRE GRENIER - 92100 BOULOGNE-BILLANCO", "city": "UE PIERRE GRENIER - 92100 BOULOGNE-BILLANCOURT"}, {"latitude": 48.85050701184191, "name": "MONTREUIL VOLTAIRE", "number": 11012, "longitude": 2.393075558274471, "zip_code": "93", "address": "93 RUE DE MONTREUIL - 75011 PA", "city": " DE MONTREUIL - 75011 PARIS"}, {"latitude": 48.915156182813234, "name": "LANDY (AUBERVILLIERS)", "number": 33012, "longitude": 2.376424009514086, "zip_code": "2", "address": "FA", "city": "DU LANDY - 93300 AUBERVILLIERS"}, {"latitude": 48.91013709505388, "name": "JAURES 1 (PANTIN)", "number": 35001, "longitude": 2.399325633305226, "zip_code": "168", "address": "168 AVENUE JEAN JAURES - 93500 PAN", "city": "ENUE JEAN JAURES - 93500 PANTIN"}, {"latitude": 48.821049923459526, "name": "MARTINIE (VANVES)", "number": 21703, "longitude": 2.29130063072414, "zip_code": "5", "address": "5-7 AVENUE MARCEL MARTINIE - 92170 VAN", "city": "ENUE MARCEL MARTINIE - 92170 VANVES"}, {"latitude": 48.866067150086806, "name": "BACHAUMONT", "number": 2101, "longitude": 2.345463652702569, "zip_code": "14", "address": "14 RUE BACHAUMONT - 75002 PA", "city": " BACHAUMONT - 75002 PARIS"}, {"latitude": 48.8794303755264, "name": "COURCELLES", "number": 17025, "longitude": 2.303467406687128, "zip_code": "2", "address": "2 RUE DE CHAZELLES - 75017 PA", "city": "DE CHAZELLES - 75017 PARIS"}, {"latitude": 48.853261668611665, "name": "RASPAIL VARENNE", "number": 7004, "longitude": 2.326319806384382, "zip_code": "28", "address": "FA", "city": "LEVARD RASPAIL - 75007 PARIS"}, {"latitude": 48.86629510600211, "name": "AMANDIERS", "number": 20032, "longitude": 2.389350412433471, "zip_code": "55", "address": "55 RUE DES CENDRIERS - 75020 PA", "city": " DES CENDRIERS - 75020 PARIS"}, {"latitude": 48.87916177777549, "name": "TOUR D'AUVERGNE", "number": 9008, "longitude": 2.34369843072095, "zip_code": "24", "address": "24 RUE D'AUVERGNE - 75009 PA", "city": " D'AUVERGNE - 75009 PARIS"}, {"latitude": 48.848257752729346, "name": "VORGES (VINCENNES)", "number": 43007, "longitude": 2.439892899386235, "zip_code": "4", "address": "4 AVENUE VORGES - 94300 VINCEN", "city": "UE VORGES - 94300 VINCENNES"}, {"latitude": 48.84419240789483, "name": "GARE DE LYON VAN GOGH", "number": 12006, "longitude": 2.371691677977748, "zip_code": "15", "address": "15 RUE VAN GOGH - 75012 PA", "city": " VAN GOGH - 75012 PARIS"}, {"latitude": 48.815388220397274, "name": "D'ORVES (MONTROUGE)", "number": 21204, "longitude": 2.320886790760933, "zip_code": "44", "address": "FA", "city": " D'ESTIENNES D'ORVES / PISCINE - 92120 MONTROUGE"}, {"latitude": 48.82476710259696, "name": "REILLE MONTSOURIS", "number": 14016, "longitude": 2.335999677300567, "zip_code": "61", "address": "61 AVENUE RENE COTY - 75014 PA", "city": "NUE RENE COTY - 75014 PARIS"}, {"latitude": 48.85281419134583, "name": "REPUBLIQUE (MONTREUIL)", "number": 31002, "longitude": 2.419307088753658, "zip_code": "38", "address": "38 RUE DE LA REPUBLIQUE - 93100 MONTRE", "city": " DE LA REPUBLIQUE - 93100 MONTREUIL"}, {"latitude": 48.83863387153602, "name": "BLANC", "number": 15070, "longitude": 2.278274193061826, "zip_code": "88", "address": "88 RUE BALARD - 75015 PA", "city": " BALARD - 75015 PARIS"}, {"latitude": 48.883769733273496, "name": "COURCELLES - DEMOURES", "number": 17047, "longitude": 2.29858466343129, "zip_code": "172", "address": "172 RUE DE COURCELLES - 75017 PA", "city": "E DE COURCELLES - 75017 PARIS"}, {"latitude": 48.890747210171405, "name": "CARPEAUX", "number": 18018, "longitude": 2.330820396477741, "zip_code": "13", "address": "13 RUE CARPEAUX - 75018 PA", "city": " CARPEAUX - 75018 PARIS"}, {"latitude": 48.85940271964358, "name": "ARCHIVES BLANCS MANTEAUX", "number": 4014, "longitude": 2.35592748653501, "zip_code": "29", "address": "29 RUE DES BLANCS MANTEAUX - 75004 PA", "city": " DES BLANCS MANTEAUX - 75004 PARIS"}, {"latitude": 48.85276674352813, "name": "SUFFREN F\u00c3\u2030D\u00c3\u2030RATION", "number": 15105, "longitude": 2.297876431467921, "zip_code": "84", "address": "84 RUE DE LA FEDERATION - 75015 PA", "city": " DE LA FEDERATION - 75015 PARIS"}, {"latitude": 48.87182588992616, "name": "BUISSON SAINT LOUIS", "number": 10024, "longitude": 2.372203224856393, "zip_code": "2", "address": "2 RUE DU BUISSON SAINT LOUIS - 75010 PA", "city": "DU BUISSON SAINT LOUIS - 75010 PARIS"}, {"latitude": 48.905745467654526, "name": "EMGP NORD (SAINT DENIS)", "number": 32008, "longitude": 2.364997877155126, "zip_code": "93200", "address": "EMGP PARKING ENTREE NORD", "city": "SAINT DENIS"}, {"latitude": 48.87614039826388, "name": "HOCHE ALBRECHT", "number": 8054, "longitude": 2.301303138307601, "zip_code": "10", "address": "10 AVENUE BERTHIER ALBRECHT - 75008 PA", "city": "NUE BERTHIER ALBRECHT - 75008 PARIS"}, {"latitude": 48.86137389094257, "name": "ASSEMBLEE NATIONALE", "number": 7009, "longitude": 2.320131276903925, "zip_code": "119", "address": "FA", "city": "E DE LILLE - 75007 PARIS"}, {"latitude": 48.86397965515107, "name": "PLACE ANDRE MALRAUX", "number": 1015, "longitude": 2.335599603893845, "zip_code": "2", "address": "2 PLACE ANDRE MALRAUX - 75001 PA", "city": "E ANDRE MALRAUX - 75001 PARIS"}, {"latitude": 48.88790134553051, "name": "LA FOURCHE RUE DE LA CONDAMINE", "number": 17002, "longitude": 2.324400445437174, "zip_code": "4", "address": "4 RUE DE LA CONDAMINE - 75017 PA", "city": "DE LA CONDAMINE - 75017 PARIS"}, {"latitude": 48.89373427753593, "name": "SIMPLON", "number": 18030, "longitude": 2.347517966604574, "zip_code": "1", "address": "1 RUE JOSEPH DIJON - 75018 PA", "city": "JOSEPH DIJON - 75018 PARIS"}, {"latitude": 48.88217309420464, "name": "HORTENSIAS (LES LILAS)", "number": 32605, "longitude": 2.42327263606036, "zip_code": "1", "address": "1 ALLEE DES HORTENSIAS - 93260 LES LI", "city": "E DES HORTENSIAS - 93260 LES LILAS"}, {"latitude": 48.82783803264948, "name": "TOLBIAC ALBERT", "number": 13045, "longitude": 2.370530563855483, "zip_code": "1", "address": "FA", "city": "JEAN COLLY - 75013 PARIS"}, {"latitude": 48.874810390028195, "name": "HAUSSMANN COURCELLES", "number": 8034, "longitude": 2.308314064189137, "zip_code": "49", "address": "49 RUE DE BERRI - 75008 PA", "city": " DE BERRI - 75008 PARIS"}, {"latitude": 48.869969733968915, "name": "QUATRE SEPTEMBRE", "number": 2012, "longitude": 2.3360394555421, "zip_code": "10", "address": "10 RUE DE CHOISEUL - 75002 PA", "city": " DE CHOISEUL - 75002 PARIS"}, {"latitude": 48.8401089566606, "name": "PORT ROYAL", "number": 5029, "longitude": 2.337296889737942, "zip_code": "41", "address": "FA", "city": "NUE GEORGES BERNANOS - 75005 PARIS"}, {"latitude": 48.853246898211985, "name": "MARAICHERS", "number": 20008, "longitude": 2.405871044529538, "zip_code": "73", "address": "73 RUE DES PYRENEES - 75020 PA", "city": " DES PYRENEES - 75020 PARIS"}, {"latitude": 48.87815529789739, "name": "PLACE SAINT FERDINAND", "number": 17039, "longitude": 2.288518047864942, "zip_code": "26", "address": "26 RUE SAINT FERDINAND - 75017 PA", "city": " SAINT FERDINAND - 75017 PARIS"}, {"latitude": 48.841249336041045, "name": "BOUCICAUT FAURE", "number": 15069, "longitude": 2.288386600849503, "zip_code": "41", "address": "41 AVENUE FELIX FAURE - 75015 PA", "city": "NUE FELIX FAURE - 75015 PARIS"}, {"latitude": 48.83712603861059, "name": "GOBELINS", "number": 5027, "longitude": 2.351433329767636, "zip_code": "22", "address": "22 AVENUE DES GOBELINS - 75005 PA", "city": "NUE DES GOBELINS - 75005 PARIS"}, {"latitude": 48.84463462629767, "name": "ST MANDE NETTER", "number": 12017, "longitude": 2.405099826323643, "zip_code": "82", "address": "82 AVENUE SAINT MANDE - 75012 PA", "city": "NUE SAINT MANDE - 75012 PARIS"}, {"latitude": 48.902691617981425, "name": "VAILLANT (PANTIN)", "number": 35003, "longitude": 2.393255829334146, "zip_code": "93500", "address": "ANGLE RUE GENERAL GOSSERAND ET AVENUE EDOUARD VAILLANT", "city": "PANTIN"}, {"latitude": 48.85386896766491, "name": "HAIES REUNION", "number": 20116, "longitude": 2.402426162238911, "zip_code": "53", "address": "53 RUE DES HAIES - 75020 PA", "city": " DES HAIES - 75020 PARIS"}, {"latitude": 48.89284571116732, "name": "HERBERT", "number": 18011, "longitude": 2.363429016279767, "zip_code": "85", "address": "85 RUE PAJOL - 75018 PA", "city": " PAJOL - 75018 PARIS"}, {"latitude": 48.83548071896613, "name": "ARAGO CORDELIERE - VERSION 2", "number": 13005, "longitude": 2.348572461702221, "zip_code": "2", "address": "2 RUE DES CORDELIERES - 75013 PA", "city": "DES CORDELIERES - 75013 PARIS"}, {"latitude": 48.87285913900304, "name": "DODU", "number": 10032, "longitude": 2.370071706985146, "zip_code": "12", "address": "N", "city": "RUE CLAUDE VELLEFAUX- 75010 PARIS"}, {"latitude": 48.84041618840877, "name": "GROULT", "number": 15037, "longitude": 2.295464906515111, "zip_code": "202", "address": "202 RUE LECOURBE - 75015 PA", "city": "E LECOURBE - 75015 PARIS"}, {"latitude": 48.90066034942664, "name": "MORICE 2 (CLICHY)", "number": 21106, "longitude": 2.308569535028556, "zip_code": "2", "address": "2-4 RUE MORICE - 92110 CLI", "city": "E MORICE - 92110 CLICHY"}, {"latitude": 48.87818887641853, "name": "TERNES COURCELLES", "number": 8055, "longitude": 2.299296003861458, "zip_code": "87", "address": "87 BD COURCELLES - 75008 PA", "city": "COURCELLES - 75008 PARIS"}, {"latitude": 48.85525336084426, "name": "MARCHE AUX FLEURS", "number": 4002, "longitude": 2.347356447642631, "zip_code": "75004", "address": "PLACE LOUIS LEPINE", "city": "PARIS"}, {"latitude": 48.84804578628324, "name": "LINOIS", "number": 15030, "longitude": 2.284380633700994, "zip_code": "66", "address": "66 RUE EMERIAU - 75015 PA", "city": " EMERIAU - 75015 PARIS"}, {"latitude": 48.85631717803066, "name": "CHARONNE", "number": 11020, "longitude": 2.383072452374457, "zip_code": "1", "address": "1 RUE DE BELFORT - 75011 PA", "city": "DE BELFORT - 75011 PARIS"}, {"latitude": 48.84071436444365, "name": "CITROEN", "number": 15059, "longitude": 2.278018571567725, "zip_code": "75015", "address": "RUE BALARD", "city": "PARIS"}, {"latitude": 48.87040913507474, "name": "PLACE DUNANT", "number": 8549, "longitude": 2.301123191744092, "zip_code": "39", "address": "39 AVENUE GEORGE V - 75008 PA", "city": "NUE GEORGE V - 75008 PARIS"}, {"latitude": 48.867565806130166, "name": "SELLIER (SURESNES)", "number": 21501, "longitude": 2.225998484960623, "zip_code": "92150", "address": "RUE DE SAINT CLOUD / BOULEVARD HENRI SELLIER", "city": "SURESNES"}, {"latitude": 48.827525292006904, "name": "ALESIA SARRETTE", "number": 14011, "longitude": 2.331729378994153, "zip_code": "6", "address": "6 RUE SARRETTE - 75014 PA", "city": "SARRETTE - 75014 PARIS"}, {"latitude": 48.8696161948985, "name": "MARIGNAN", "number": 8013, "longitude": 2.306620834902348, "zip_code": "24", "address": "24 RUE DE MARIGNAN - 75008 PA", "city": " DE MARIGNAN - 75008 PARIS"}, {"latitude": 48.84633805388875, "name": "PARIS 1 (VINCENNES)", "number": 43001, "longitude": 2.420247340474637, "zip_code": "168", "address": "168 AVENUE DE PARIS - 94300 VINCEN", "city": "ENUE DE PARIS - 94300 VINCENNES"}, {"latitude": 48.815050006197445, "name": "PLACE MONGOLFIER (SAINT MAURICE)", "number": 44101, "longitude": 2.459239414806482, "zip_code": "94410", "address": "PLACE MONTGOLFIER", "city": "SAINT MAURICE"}, {"latitude": 48.86356704711952, "name": "ETIENNE MARCEL", "number": 1007, "longitude": 2.347702021141098, "zip_code": "2", "address": "2 RUE DE TURBIGO - 75001 PA", "city": "DE TURBIGO - 75001 PARIS"}, {"latitude": 48.86951797934417, "name": "FRANCOIS 1ER LINCOLN", "number": 8105, "longitude": 2.302426218841562, "zip_code": "56", "address": "56 RUE FRANCOIS 1ER - 75008 PA", "city": " FRANCOIS 1ER - 75008 PARIS"}, {"latitude": 48.837555260014625, "name": "PORTE DE SAINT CLOUD", "number": 16042, "longitude": 2.257972572706903, "zip_code": "120", "address": "120 BOULEVARD MURAT - 75016 PA", "city": "ULEVARD MURAT - 75016 PARIS"}, {"latitude": 48.89045112096476, "name": "BARBES MARCADET", "number": 18022, "longitude": 2.349057392968696, "zip_code": "57", "address": "57 RUE MARCADET - 75018 PA", "city": " MARCADET - 75018 PARIS"}, {"latitude": 48.90249245151852, "name": "VALITON (CLICHY)", "number": 21101, "longitude": 2.297840007374352, "zip_code": "4", "address": "4 RUE DE VALITON - 92110 CLI", "city": "DE VALITON - 92110 CLICHY"}, {"latitude": 48.830723214583635, "name": "DAREAU", "number": 14125, "longitude": 2.336146557204349, "zip_code": "34", "address": "34 RUE DAREAU - 75014 PA", "city": " DAREAU - 75014 PARIS"}, {"latitude": 48.823923168544646, "name": "CIT\u00c3\u2030 UNIVERSITAIRE", "number": 14115, "longitude": 2.316573329316086, "zip_code": "75014", "address": "AVENUE MAURICE D'OCAGNE", "city": "PARIS"}, {"latitude": 48.88896161855884, "name": "LEGENDRE AVENUE DE CLICHY", "number": 17004, "longitude": 2.322528975094376, "zip_code": "130", "address": "130 RUE LEGENDRE - 75017 PA", "city": "E LEGENDRE - 75017 PARIS"}, {"latitude": 48.89591411750011, "name": "NAVIER", "number": 17007, "longitude": 2.322727367054828, "zip_code": "57", "address": "FA", "city": " NAVIER - 75017 PARIS"}, {"latitude": 48.891834448210986, "name": "REIMS", "number": 17116, "longitude": 2.300144659954865, "zip_code": "6", "address": "6 BOULEVARD DE REIMS - 75017 PA", "city": "EVARD DE REIMS - 75017 PARIS"}, {"latitude": 48.874179024030234, "name": "CAUMARTIN PROVENCE", "number": 9104, "longitude": 2.327778690118609, "zip_code": "115", "address": "115 rue de provence - 75009 PA", "city": "e de provence - 75009 PARIS"}, {"latitude": 48.875353174464706, "name": "ROME SAINT LAZARE", "number": 8008, "longitude": 2.322884365751902, "zip_code": "1", "address": "1 RUE JOSEPH SANSBOEUF - 75008 PA", "city": "JOSEPH SANSBOEUF - 75008 PARIS"}, {"latitude": 48.856954148055344, "name": "RUE DE SEVIGNE", "number": 3013, "longitude": 2.362897420229539, "zip_code": "36", "address": "36 RUE DE SEVIGNE - 75003 PA", "city": " DE SEVIGNE - 75003 PARIS"}, {"latitude": 48.82860289084512, "name": "BOBILLOT VERLAINE", "number": 13023, "longitude": 2.353034582951421, "zip_code": "30", "address": "30 RUE BOBILLOT - 75013 PA", "city": " BOBILLOT - 75013 PARIS"}, {"latitude": 48.84779066448261, "name": "FONTENAY (VINCENNES)", "number": 43008, "longitude": 2.444690887827985, "zip_code": "12", "address": "12 RUE DE FONTENAY - 94300 VINCEN", "city": " DE FONTENAY - 94300 VINCENNES"}, {"latitude": 48.85712940035504, "name": "PYRENEES VITRUVE", "number": 20016, "longitude": 2.404425625176959, "zip_code": "114", "address": "114 BIS RUE DES PYRENEES - 75020 PA", "city": "S RUE DES PYRENEES - 75020 PARIS"}, {"latitude": 48.88416326647457, "name": "TARDIEU", "number": 18005, "longitude": 2.341879802310627, "zip_code": "8", "address": "8 RUE TARDIEU - 75018 PA", "city": "TARDIEU - 75018 PARIS"}, {"latitude": 48.825325870060475, "name": "STADE DIDOT", "number": 14106, "longitude": 2.310670653467625, "zip_code": "58", "address": "FA", "city": "NUE MARC SANGNIER - 75014 PARIS"}, {"latitude": 48.873338225236466, "name": "NOISY LE SEC", "number": 20120, "longitude": 2.413239879550039, "zip_code": "1", "address": "1 RUE EVARISTE GALOIS - 75020 PA", "city": "EVARISTE GALOIS - 75020 PARIS"}, {"latitude": 48.8335736182304, "name": " PALAIS DES SPORTS", "number": 15107, "longitude": 2.28548042091786, "zip_code": "42", "address": "42 BOULEVARD VICTOR - 75015 PA", "city": "LEVARD VICTOR - 75015 PARIS"}, {"latitude": 48.843542735006295, "name": "LECOURBE VOLONTAIRE", "number": 15013, "longitude": 2.306558615574665, "zip_code": "1", "address": "D", "city": "DES VOLONTAIRES - 75015 PARIS"}, {"latitude": 48.883620233843736, "name": "JOINEAU (PRE SAINT GERVAIS)", "number": 33104, "longitude": 2.403240318366616, "zip_code": "93310", "address": "RUE ANDRE JOINEAU / PLACE ANATOLE FRANCE", "city": "LE PRE SAINT GERVAIS"}, {"latitude": 48.852725972189546, "name": "VILLAGE SAINT PAUL", "number": 4009, "longitude": 2.360878343431665, "zip_code": "6", "address": "6 RUE SAINT PAUL - 75004 PA", "city": "SAINT PAUL - 75004 PARIS"}, {"latitude": 48.84795020779427, "name": "PORTE D'AUTEUIL", "number": 16034, "longitude": 2.260659826137633, "zip_code": "76", "address": "76 RUE D'AUTEUIL - 75016 PA", "city": " D'AUTEUIL - 75016 PARIS"}, {"latitude": 48.87685932729332, "name": "TRINITE", "number": 9029, "longitude": 2.332762380011633, "zip_code": "62", "address": "62 RUE SAINT LAZARE - 75009 PA", "city": " SAINT LAZARE - 75009 PARIS"}, {"latitude": 48.827564379878744, "name": "BUTTE AUX CAILLES", "number": 13022, "longitude": 2.34906350669476, "zip_code": "27", "address": "27 ET 36 RUE DE LA BUTTE AUX CAILLES - 75013 PA", "city": "36 RUE DE LA BUTTE AUX CAILLES - 75013 PARIS"}, {"latitude": 48.85862166935013, "name": "HARPIGNIES", "number": 20018, "longitude": 2.409942553877677, "zip_code": "2", "address": "2 RUE HARPIGNIES- 75020 PA", "city": "HARPIGNIES- 75020 PARIS"}, {"latitude": 48.87572, "name": "GARE SAINT LAZARE - COUR DU HAVRE", "number": 8002, "longitude": 2.32668, "zip_code": "2", "address": "Cour du Havre - Face ", "city": " d'Amsterdam - 75008 PARIS"}, {"latitude": 48.868165940558264, "name": "GEORGE V", "number": 8047, "longitude": 2.301274609316824, "zip_code": "28", "address": "28 AVENUE GEORGE V - 75008 PA", "city": "NUE GEORGE V - 75008 PARIS"}, {"latitude": 48.907885757266726, "name": "FELIX (AUBERVILLIERS)", "number": 33009, "longitude": 2.378838474064149, "zip_code": "120", "address": "120 BOULEVARD FELIX FAURE - 93300 AUBERVILLI", "city": "ULEVARD FELIX FAURE - 93300 AUBERVILLIERS"}, {"latitude": 48.8646494198968, "name": "OBERKAMPF", "number": 11042, "longitude": 2.369261438255258, "zip_code": "1", "address": "1 RUE DU GRAND PRIEURE - 75011 PA", "city": "DU GRAND PRIEURE - 75011 PARIS"}, {"latitude": 48.82509932921558, "name": "PASTEUR (VANVES)", "number": 21707, "longitude": 2.292500331456548, "zip_code": "9", "address": "9 AVENUE PASTEUR ANGLE CARREFOUR ALBERT LEGRIS - 92170 Van", "city": "UE PASTEUR ANGLE CARREFOUR ALBERT LEGRIS - 92170 Vanves"}, {"latitude": 48.83317977055646, "name": "DANTZIG", "number": 15047, "longitude": 2.299282641599619, "zip_code": "37", "address": "FACE ", "city": " MORILLONS - 75015 PARIS"}, {"latitude": 48.824952872870355, "name": "IVRY BRUNESEAU", "number": 13121, "longitude": 2.388580678853776, "zip_code": "75013", "address": "RUE BRUNESEAU", "city": "PARIS"}, {"latitude": 48.84776985682885, "name": "DUROC", "number": 7001, "longitude": 2.316183886729462, "zip_code": "63", "address": "63 BOULEVARD DES INVALIDES - 75007 PA", "city": "LEVARD DES INVALIDES - 75007 PARIS"}, {"latitude": 48.836058393856256, "name": "CHARLES VALLIN", "number": 15039, "longitude": 2.301865968384287, "zip_code": "133", "address": "133 RUE DE L'ABBE GROULT - 75015 PA", "city": "E DE L'ABBE GROULT - 75015 PARIS"}, {"latitude": 48.87494475810723, "name": "HOCHE", "number": 8057, "longitude": 2.29743857720451, "zip_code": "62", "address": "62 AVENUE HOCHE - 75008 PA", "city": "NUE HOCHE - 75008 PARIS"}, {"latitude": 48.85761567856468, "name": "INSTITUT", "number": 6001, "longitude": 2.335831353037739, "zip_code": "5", "address": "5 QUAI MALAQAIS - 75006 PA", "city": " MALAQAIS - 75006 PARIS"}, {"latitude": 48.866331347902545, "name": "REPUBLIQUE PIERRE LEVEE", "number": 11109, "longitude": 2.371097448471508, "zip_code": "1", "address": "1 RUE DE LA PIERRE LEVEE - 75011 PA", "city": "DE LA PIERRE LEVEE - 75011 PARIS"}, {"latitude": 48.83088717455243, "name": "ALESIA GERGOVIE", "number": 14027, "longitude": 2.318882101207347, "zip_code": "83", "address": "FA", "city": " DE GERGOVIE - 75014 PARIS"}, {"latitude": 48.871361039775586, "name": "PAUL VAL\u00c3\u2030RY", "number": 16104, "longitude": 2.288866396041159, "zip_code": "26", "address": "26-32 RUE PAUL VALERY - 75016 PA", "city": "RUE PAUL VALERY - 75016 PARIS"}, {"latitude": 48.854963800335234, "name": "CHARONNE FROT", "number": 11111, "longitude": 2.387217085372007, "zip_code": "31", "address": "31 RUE LEON FROT - 75011 PA", "city": " LEON FROT - 75011 PARIS"}, {"latitude": 48.88949630486821, "name": "FELIZ ZIEM", "number": 18111, "longitude": 2.333393658804396, "zip_code": "2", "address": "2 RUE FELIX ZIEM - 75018 PA", "city": "FELIX ZIEM - 75018 PARIS"}, {"latitude": 48.82234096593411, "name": "JOURDAN LE BRIX ET MESNIN", "number": 14108, "longitude": 2.327861653302471, "zip_code": "75014", "address": "RUE LE BRIX ET MESNIN", "city": "PARIS"}, {"latitude": 48.87545720024482, "name": "MESSINE", "number": 8026, "longitude": 2.315465494584916, "zip_code": "2", "address": "2 AVENUE MESSINE - 75008 PA", "city": "UE MESSINE - 75008 PARIS"}, {"latitude": 48.879223370628495, "name": "MAUBEUGE CONDORCET", "number": 9002, "longitude": 2.349147493536092, "zip_code": "19", "address": "19 RUE D'ABBEVILLE - 75009 PA", "city": " D'ABBEVILLE - 75009 PARIS"}, {"latitude": 48.85560316202584, "name": "CHARONNE PHILIPPE AUGUSTE", "number": 11019, "longitude": 2.390546390619984, "zip_code": "156", "address": "156 RUE DE CHARONNE - 75011 PA", "city": "E DE CHARONNE - 75011 PARIS"}, {"latitude": 48.87712417766737, "name": "BOLIVAR BURNOUF", "number": 19118, "longitude": 2.374276509236151, "zip_code": "82", "address": "82 AVENUE SIMON BOLIVAR - 75019 PA", "city": "NUE SIMON BOLIVAR - 75019 PARIS"}, {"latitude": 48.84629503172156, "name": "CARDINAL LEMOINE", "number": 5022, "longitude": 2.352222921607491, "zip_code": "40", "address": "40 RUE BOU LANGERS - 75005 PA", "city": " BOU LANGERS - 75005 PARIS"}, {"latitude": 48.87208360886937, "name": "HITTORFF", "number": 10009, "longitude": 2.35766368561921, "zip_code": "14", "address": "FA", "city": " HITTORFF - 75010 PARIS"}, {"latitude": 48.839988788911874, "name": "BEL AIR", "number": 12038, "longitude": 2.400525668552064, "zip_code": "12", "address": "FA", "city": "LEVARD PICPUS - 75012 PARIS"}, {"latitude": 48.834390797006805, "name": "BOULARD DAGUERRE", "number": 14036, "longitude": 2.329303946545288, "zip_code": "14", "address": "14 RUE BOULARD - 75014 PA", "city": " BOULARD - 75014 PARIS"}, {"latitude": 48.89032998912038, "name": "BROCHANT", "number": 17005, "longitude": 2.319730559929781, "zip_code": "43", "address": "43 RUE BROCHANT - 75017 PA", "city": " BROCHANT - 75017 PARIS"}, {"latitude": 48.863025315388256, "name": "HENRI MARTIN", "number": 16019, "longitude": 2.268806550199479, "zip_code": "98", "address": "FA", "city": " HENRI MARTIN - 75016 PARIS"}, {"latitude": 48.892656891991216, "name": "CHAPELLE", "number": 18104, "longitude": 2.359435454901881, "zip_code": "2", "address": "2 IMPASSE DE LA CHAPELLE - 75018 PA", "city": "SSE DE LA CHAPELLE - 75018 PARIS"}, {"latitude": 48.82987537265954, "name": "BOBILLOT MERY", "number": 13106, "longitude": 2.35424653463425, "zip_code": "17", "address": "17 RUE BOBILLOT - 75013 PA", "city": " BOBILLOT - 75013 PARIS"}, {"latitude": 48.84064929857331, "name": "RHIN DANUBE (BOULOGNE BILLANCOURT)", "number": 21007, "longitude": 2.227978774754288, "zip_code": "15", "address": "15 ROND POINT RHIN DANUBE - 92100 BOULOGNE BILLANCO", "city": "D POINT RHIN DANUBE - 92100 BOULOGNE BILLANCOURT"}, {"latitude": 48.87346279870817, "name": "BOURSE DU TRAVAIL", "number": 10111, "longitude": 2.364035059250436, "zip_code": "100", "address": "100 QUAI DE JEMMAPES - 75010 PA", "city": "AI DE JEMMAPES - 75010 PARIS"}, {"latitude": 48.881447321103366, "name": "BOLIVAR", "number": 19022, "longitude": 2.3734047671616, "zip_code": "53", "address": "53 RUE DE MEAUX - 75019 PA", "city": " DE MEAUX - 75019 PARIS"}, {"latitude": 48.89271966633131, "name": "LOLIVE 2 (PANTIN)", "number": 35008, "longitude": 2.412529571472175, "zip_code": "132", "address": "132 RUE JEAN LOLIVE - 93500 PAN", "city": "E JEAN LOLIVE - 93500 PANTIN"}, {"latitude": 48.886233417429835, "name": "PLACE DU MAROC", "number": 19109, "longitude": 2.368856390499634, "zip_code": "27", "address": "27 RUE DE TANGER - 75019 PA", "city": " DE TANGER - 75019 PARIS"}, {"latitude": 48.868851708234864, "name": "MARCEAU", "number": 8048, "longitude": 2.298514048803577, "zip_code": "45", "address": "45 AVENUE MARCEAU - 75008 PA", "city": "NUE MARCEAU - 75008 PARIS"}, {"latitude": 48.875329723153264, "name": "FAUBOURG MONTMARTRE", "number": 9014, "longitude": 2.340772662331439, "zip_code": "55", "address": "55 RUE DU FAUBOURG MONTMARTRE - 75009 PA", "city": " DU FAUBOURG MONTMARTRE - 75009 PARIS"}, {"latitude": 48.87789001497427, "name": "ROCHECHOUART MAUBEUGE", "number": 9108, "longitude": 2.344785602987212, "zip_code": "25", "address": "25 RUE DE ROCHECHOUART - 75009 PA", "city": " DE ROCHECHOUART - 75009 PARIS"}, {"latitude": 48.82998371071962, "name": "BLANQUI CORVISART", "number": 13009, "longitude": 2.350403587821832, "zip_code": "46", "address": "46 BOULEVARD AUGUSTE BLANQUI - 75013 PA", "city": "LEVARD AUGUSTE BLANQUI - 75013 PARIS"}, {"latitude": 48.89067812943125, "name": "MATHIS", "number": 19006, "longitude": 2.376142468863619, "zip_code": "6", "address": "6 RUE MATHIS - 75019 PA", "city": "MATHIS - 75019 PARIS"}, {"latitude": 48.89263392143244, "name": "BODIN AVENUE DE CLICHY", "number": 17009, "longitude": 2.317313258110739, "zip_code": "2", "address": "2 RUE PAUL BODIN - 75017 PA", "city": "PAUL BODIN - 75017 PARIS"}, {"latitude": 48.84394917584249, "name": "BARTHES TROYES", "number": 12106, "longitude": 2.37908134343237, "zip_code": "3", "address": "3 RUE ROLAND BARTHES - 75012 PA", "city": "ROLAND BARTHES - 75012 PARIS"}, {"latitude": 48.8887900267753, "name": "LEDIT DE NANTES", "number": 19125, "longitude": 2.378500156138491, "zip_code": "75019", "address": "PLACE LEDIT DE NANTES", "city": "PARIS"}, {"latitude": 48.8095823380351, "name": "FONTAINEBLEAU (KREMLIN BICETRE)", "number": 42703, "longitude": 2.36268350990116, "zip_code": "93", "address": "93 AVENUE DE FONTAINEBLEAU - 94270 LE KREMLIN BICE", "city": "NUE DE FONTAINEBLEAU - 94270 LE KREMLIN BICETRE"}, {"latitude": 48.87320440102894, "name": "SQUARE LOUIS XVI", "number": 8016, "longitude": 2.323658830743138, "zip_code": "32", "address": "D", "city": " PASQUIER - 75008 PARIS"}, {"latitude": 48.851454182127426, "name": "AMETTE", "number": 15025, "longitude": 2.296710300930856, "zip_code": "26", "address": "26 RUE DUPLEIX - 75015 PA", "city": " DUPLEIX - 75015 PARIS"}, {"latitude": 48.84367484543761, "name": "LACEPEDE", "number": 5031, "longitude": 2.354615982683207, "zip_code": "2", "address": "2 RUE LACEPEDE - 75005 PA", "city": "LACEPEDE - 75005 PARIS"}, {"latitude": 48.84373446877937, "name": "ASSAS LUXEMBOURG", "number": 6008, "longitude": 2.333428381875887, "zip_code": "90", "address": "90 RUE D'ASSAS - 75006 PA", "city": " D'ASSAS - 75006 PARIS"}, {"latitude": 48.866810653323, "name": "OP\u00c3\u2030RA PYRAMIDES", "number": 1116, "longitude": 2.334388448251871, "zip_code": "4", "address": "4 RUE DE VENTADOUR - 75001 PA", "city": "DE VENTADOUR - 75001 PARIS"}, {"latitude": 48.84479039026177, "name": "VIOLET", "number": 15033, "longitude": 2.290541560154527, "zip_code": "5", "address": "5 PLACE VIOLET - 75015 PA", "city": "E VIOLET - 75015 PARIS"}, {"latitude": 48.88573329985865, "name": "PORTE CHAUMONT", "number": 19035, "longitude": 2.397846415383189, "zip_code": "75019", "address": "RUE SIGMUND FREUD / PORTE CHAUMONT", "city": "PARIS"}, {"latitude": 48.894104140316266, "name": "OURCQ CRIMEE", "number": 19001, "longitude": 2.372946088467279, "zip_code": "243", "address": "243 RUE DE CRIMEE - 75019 PA", "city": "E DE CRIMEE - 75019 PARIS"}, {"latitude": 48.845779219164555, "name": "PASTEUR (SAINT MANDE)", "number": 41603, "longitude": 2.42377059524055, "zip_code": "94160", "address": "AVENUE PASTEUR/AVENUE DE PARIS", "city": "SAINT MANDE"}, {"latitude": 48.88219420395092, "name": "MARTYRS 2", "number": 18041, "longitude": 2.340651849622331, "zip_code": "112", "address": "FA", "city": "ULEVARD DE ROCHECHOUART - 75018 PARIS"}, {"latitude": 48.87013645868239, "name": "SQUARE DE MENILMONTANT", "number": 20119, "longitude": 2.396690612876254, "zip_code": "138", "address": "138 RUE DE MENILMONTANT - 75020 PA", "city": "E DE MENILMONTANT - 75020 PARIS"}, {"latitude": 48.8473310531154, "name": "COURS DE VINCENNES BD DAVOUT", "number": 20047, "longitude": 2.4103900081973, "zip_code": "107", "address": "107 COURS DE VINCENNES - 75020 PA", "city": "URS DE VINCENNES - 75020 PARIS"}, {"latitude": 48.853844054333514, "name": "BIR HAKEIM", "number": 15026, "longitude": 2.289705348222022, "zip_code": "6", "address": "FA", "city": "EVARD DE GRENELLE - 75015 PARIS"}, {"latitude": 48.87078277953678, "name": "BONNE NOUVELLE SAINT FIACRE", "number": 2022, "longitude": 2.345905811394424, "zip_code": "20", "address": "20 RUE SAINT FIACRE - 75002 PA", "city": " SAINT FIACRE - 75002 PARIS"}, {"latitude": 48.850285280635795, "name": "PYR\u00c3\u2030N\u00c3\u2030ES - PLAINE", "number": 20006, "longitude": 2.406296107816583, "zip_code": "33", "address": "33 RUE DES PYRENEES - 75020 PA", "city": " DES PYRENEES - 75020 PARIS"}, {"latitude": 48.838713363162405, "name": "STADE FRANCAIS", "number": 16044, "longitude": 2.252191060537607, "zip_code": "24", "address": "24 AVENUE DE LA PORTE DE SAINT CLOUD - 75016 PA", "city": "NUE DE LA PORTE DE SAINT CLOUD - 75016 PARIS"}, {"latitude": 48.87553842110213, "name": "CARNOT", "number": 17033, "longitude": 2.293732100169925, "zip_code": "8", "address": "8 AVENUE CARNOT - 75017 PA", "city": "UE CARNOT - 75017 PARIS"}, {"latitude": 48.86941289116132, "name": "PYRENEES", "number": 20035, "longitude": 2.395039981220676, "zip_code": "262", "address": "262 RUE DES PYRENEES - 75020 PA", "city": "E DES PYRENEES - 75020 PARIS"}, {"latitude": 48.88457006316311, "name": "CHAPELLE MARX DORMOY", "number": 18040, "longitude": 2.360215572664323, "zip_code": "29", "address": "29 BOULEVARD DE LA CHAPELLE - 75018 PA", "city": "LEVARD DE LA CHAPELLE - 75018 PARIS"}, {"latitude": 48.877356057652264, "name": "MARCHE ST QUENTIN", "number": 10021, "longitude": 2.354511445637388, "zip_code": "4", "address": "4 RUE DES PETITS HOTELS - 75010 PA", "city": "DES PETITS HOTELS - 75010 PARIS"}, {"latitude": 48.872939767837096, "name": "PETITES ECURIES", "number": 10006, "longitude": 2.35403448428308, "zip_code": "5", "address": "5 RUE DES PETITES ECURIES - 75010 PA", "city": "DES PETITES ECURIES - 75010 PARIS"}, {"latitude": 48.892895283967825, "name": "RUISSEAU ORDENER", "number": 18026, "longitude": 2.340119632436559, "zip_code": "37", "address": "37 RUE DU RUISSEAU - 75018 PA", "city": " DU RUISSEAU - 75018 PARIS"}, {"latitude": 48.860116109626574, "name": "PAUL DOUMER / LA TOUR", "number": 16016, "longitude": 2.280840481911055, "zip_code": "53", "address": "53 AVENUE PAUL DOUMER - 75016 PA", "city": "NUE PAUL DOUMER - 75016 PARIS"}, {"latitude": 48.89654905978759, "name": "CITE DES SCIENCES", "number": 19009, "longitude": 2.384649644021933, "zip_code": "28", "address": "28BIS AVENUE CORENTIN CARIOU - 75019 PA", "city": "AVENUE CORENTIN CARIOU - 75019 PARIS"}, {"latitude": 48.875070404063074, "name": "SIMON BOLIVAR", "number": 19101, "longitude": 2.382591714979966, "zip_code": "36", "address": "36 AVENUE SIMON BOLIVAR - 75019 PA", "city": "NUE SIMON BOLIVAR - 75019 PARIS"}, {"latitude": 48.89792240854517, "name": "PORTE DE SAINT OUEN", "number": 17044, "longitude": 2.32851451022192, "zip_code": "1", "address": "1 AVENUE DE LA PORTE DE SAINT OUEN - 75017 PA", "city": "UE DE LA PORTE DE SAINT OUEN - 75017 PARIS"}, {"latitude": 48.847653880984645, "name": "DIDEROT BOURDAN", "number": 12107, "longitude": 2.390238633141864, "zip_code": "146", "address": "146 BOULEVARD DIDEROT - 75012 PA", "city": "ULEVARD DIDEROT - 75012 PARIS"}, {"latitude": 48.85167822904787, "name": "SAINT FRANCOIS XAVIER", "number": 7014, "longitude": 2.314633840627834, "zip_code": "35", "address": "35 BOULEVARD DES INVALIDES - 75007 PA", "city": "LEVARD DES INVALIDES - 75007 PARIS"}, {"latitude": 48.84115621648301, "name": "EDGAR QUINET", "number": 14001, "longitude": 2.324448789519074, "zip_code": "13", "address": "13 BOULEVARD EDGAR QUINET - 75014 PA", "city": "LEVARD EDGAR QUINET - 75014 PARIS"}, {"latitude": 48.861581157730946, "name": "TEMPLE 113", "number": 3009, "longitude": 2.35660934144383, "zip_code": "76", "address": "76 RUE DU TEMPLE - 75003 PA", "city": " DU TEMPLE - 75003 PARIS"}, {"latitude": 48.86707, "name": "REPUBLIQUE 23", "number": 3004, "longitude": 2.36351, "zip_code": "19", "address": "19 PLACE DE LA REPUBLIQUE - 75003 PA", "city": "CE DE LA REPUBLIQUE - 75003 PARIS"}, {"latitude": 48.88365921093733, "name": "PORTE BRUNET", "number": 19105, "longitude": 2.395719508193907, "zip_code": "1", "address": "FA", "city": "UE AMBROISE RENDU - 75019 PARIS"}, {"latitude": 48.88727464264267, "name": "DAMREMONT CAULAINCOURT", "number": 18001, "longitude": 2.332648363845394, "zip_code": "6", "address": "6 RUE DAMREMONT - 75018 PA", "city": "DAMREMONT - 75018 PARIS"}, {"latitude": 48.863411107404715, "name": "PERE LACHAISE", "number": 20030, "longitude": 2.387133957573714, "zip_code": "54", "address": "54 BOULEVARD MENILMONTANT - 75020 PA", "city": "LEVARD MENILMONTANT - 75020 PARIS"}, {"latitude": 48.867623078056845, "name": "OPERA CASANOVA", "number": 2020, "longitude": 2.333268593101536, "zip_code": "02", "address": "02 RUE DANIEL CASANOVA - 75002 PA", "city": " DANIEL CASANOVA - 75002 PARIS"}, {"latitude": 48.833139, "name": "LOSSERAND BOYER-BARRET", "number": 14104, "longitude": 2.317377, "zip_code": "4", "address": "4 RUE BOYER BARRET - 75014 PA", "city": "BOYER BARRET - 75014 PARIS"}, {"latitude": 48.852255290042486, "name": "CHARONNE SAINT ANTOINE", "number": 11004, "longitude": 2.374027235613735, "zip_code": "3", "address": "3 RUE DE CHARONNE - 75011 PA", "city": "DE CHARONNE - 75011 PARIS"}, {"latitude": 48.857566889784465, "name": "RUE JEAN BOLOGNE", "number": 16022, "longitude": 2.280027395306772, "zip_code": "16", "address": "16 RUE JEAN BOLOGNE - 75016 PA", "city": " JEAN BOLOGNE - 75016 PARIS"}, {"latitude": 48.90162, "name": "GARE EMGP", "number": 19106, "longitude": 2.37267, "zip_code": "35", "address": "35, rue de la Gare - 75019 PA", "city": "e de la Gare - 75019 PARIS"}, {"latitude": 48.831582643774894, "name": "PLACE D ITALIE AURIOL", "number": 13010, "longitude": 2.356708420760657, "zip_code": "11", "address": "FA", "city": "CE D'ITALIE - 75013 PARIS"}, {"latitude": 48.88591312825616, "name": "BERTHIER STUART MERRIL", "number": 17107, "longitude": 2.293234151072418, "zip_code": "182", "address": "182 BOULEVARD BERTHIER - 75017 PA", "city": "ULEVARD BERTHIER - 75017 PARIS"}, {"latitude": 48.831121775069235, "name": "CROULEBARBE RECULETTES", "number": 13101, "longitude": 2.348108654777346, "zip_code": "67", "address": "67-69 RUE DE CROULEBARBE - 75013 PA", "city": "RUE DE CROULEBARBE - 75013 PARIS"}, {"latitude": 48.81315667771776, "name": "LENINE (GENTILLY)", "number": 42503, "longitude": 2.332054794950423, "zip_code": "71", "address": "FA", "city": "NUE LENINE - 94250 GENTILLY"}, {"latitude": 48.84057730290756, "name": "GARE D'AUSTERLITZ", "number": 13151, "longitude": 2.366124461859616, "zip_code": "75013", "address": "GARE D'AUSTERLITZ", "city": "PARIS"}, {"latitude": 48.865346269362675, "name": "PLACE DU CANADA", "number": 8029, "longitude": 2.310193787964762, "zip_code": "1", "address": "1 AVENUE FRANKLIN ROOSEVELT - 75008 PA", "city": "UE FRANKLIN ROOSEVELT - 75008 PARIS"}, {"latitude": 48.844425919545365, "name": "COMMERCE", "number": 15034, "longitude": 2.29404143328216, "zip_code": "2", "address": "2 RUE LAKANAL - 75015 PA", "city": "LAKANAL - 75015 PARIS"}, {"latitude": 48.86213223497159, "name": "TURENNE BRETAGNE", "number": 3003, "longitude": 2.364951386893752, "zip_code": "4", "address": "4 RUE DES FILLES DU CALVAIRE - 75003 PA", "city": "DES FILLES DU CALVAIRE - 75003 PARIS"}, {"latitude": 48.825712903519616, "name": "OUDINE PATAY", "number": 13046, "longitude": 2.375044300094851, "zip_code": "10", "address": "10 RUE EUGENE OUDINE - 75013 PA", "city": " EUGENE OUDINE - 75013 PARIS"}, {"latitude": 48.86500081847653, "name": "PELLEPORT BELGRAND", "number": 20023, "longitude": 2.403980836377493, "zip_code": "44", "address": "44 RUE PELLEPORT - 75020 PA", "city": " PELLEPORT - 75020 PARIS"}, {"latitude": 48.86299816676784, "name": "BOURSE DU COMMERCE", "number": 1012, "longitude": 2.341555077827231, "zip_code": "29", "address": "FA", "city": " JEAN JACQUES ROUSSEAU - 75001 PARIS"}, {"latitude": 48.818574415839485, "name": "CIMETIERE DE GENTILLY", "number": 13111, "longitude": 2.353260183740912, "zip_code": "75013", "address": "RUE DE LA POTERNE DES PEUPLIERS", "city": "PARIS"}, {"latitude": 48.81420628475591, "name": "CASANOVA (IVRY)", "number": 42008, "longitude": 2.384207013557983, "zip_code": "128", "address": "128 AVENUE DANIEL CASANOVA - 94200 I", "city": "ENUE DANIEL CASANOVA - 94200 IVRY"}, {"latitude": 48.833654852830335, "name": "BOIS DE VINCENNES", "number": 12041, "longitude": 2.413463576486826, "zip_code": "75012", "address": "AVENUE DAUMESNIL", "city": "PARIS"}, {"latitude": 48.900889626876015, "name": "FRUCTIDOR (SAINT OUEN)", "number": 34001, "longitude": 2.324819807804481, "zip_code": "10", "address": "FA", "city": " FRUCTIDOR / FACE BAT 2 LE COLYSEE - 93400 SAINT OUEN"}, {"latitude": 48.903676702256305, "name": "SANZILLON (CLICHY)", "number": 21104, "longitude": 2.319176657580128, "zip_code": "64", "address": "64 RUE DE MADAME DE SANZILLON - 92110 CLI", "city": " DE MADAME DE SANZILLON - 92110 CLICHY"}, {"latitude": 48.852193095437535, "name": "RUE DES BOULETS", "number": 11009, "longitude": 2.3890216505832, "zip_code": "45", "address": "45 RUE DES BOULETS - 75011 PA", "city": " DES BOULETS - 75011 PARIS"}, {"latitude": 48.8830298392804, "name": "MANIN CRIMEE", "number": 19031, "longitude": 2.38634884002286, "zip_code": "8", "address": "8 RUE MANIN - 75019 PA", "city": "MANIN - 75019 PARIS"}, {"latitude": 48.891962328964816, "name": "VOLTAIRE (LEVALLOIS)", "number": 23010, "longitude": 2.284204990113615, "zip_code": "47", "address": "47 RUE VOLTAIRE - 92300 LEVALLOIS-PER", "city": " VOLTAIRE - 92300 LEVALLOIS-PERRET"}, {"latitude": 48.821159320800966, "name": "ITALIE MAISON BLANCHE", "number": 13031, "longitude": 2.358701217878322, "zip_code": "121", "address": "121 AVENUE D'ITALIE - 75013 PA", "city": "ENUE D'ITALIE - 75013 PARIS"}, {"latitude": 48.88103214901626, "name": "TRUDAINE MARTYRS", "number": 9017, "longitude": 2.340774412117837, "zip_code": "01", "address": "01 RUE LALLIER - 75009 PA", "city": " LALLIER - 75009 PARIS"}, {"latitude": 48.83772145898209, "name": "PARC DE BERCY", "number": 12026, "longitude": 2.382217337050408, "zip_code": "61", "address": "61 RUE DE BERCY - 75012 PA", "city": " DE BERCY - 75012 PARIS"}, {"latitude": 48.847296310645035, "name": "REUILLY DIDEROT", "number": 12012, "longitude": 2.385707672217665, "zip_code": "71", "address": "71 BOULEVARD DIDEROT - 75012 PA", "city": "LEVARD DIDEROT - 75012 PARIS"}, {"latitude": 48.83899382454321, "name": "MOUFFETARD SAINT MEDARD", "number": 5026, "longitude": 2.34993205295774, "zip_code": "3", "address": "3 RUE PASCAL - 75005 PA", "city": "PASCAL - 75005 PARIS"}, {"latitude": 48.861205051934334, "name": "SAINT SEBASTIEN FROISSARD", "number": 11045, "longitude": 2.367352328799597, "zip_code": "12", "address": "12 BD DES FILLES DU CALVAIRE - 75011 PA", "city": "DES FILLES DU CALVAIRE - 75011 PARIS"}, {"latitude": 48.8794000532367, "name": "POULMARCH (LES LILAS)", "number": 32602, "longitude": 2.41616066183218, "zip_code": "7", "address": "7 RUE JEAN POULMARCH - 93260 LES LI", "city": "JEAN POULMARCH - 93260 LES LILAS"}, {"latitude": 48.88794016394694, "name": "FOURCHE", "number": 18046, "longitude": 2.326124420314341, "zip_code": "12", "address": "12 RUE ETIENNE JOGELLE - 75018 PA", "city": " ETIENNE JOGELLE - 75018 PARIS"}, {"latitude": 48.8716626619994, "name": "BEAUREPAIRE", "number": 10014, "longitude": 2.363933311380362, "zip_code": "14", "address": "14 RUE DE MARSEILLE - 75010 PA", "city": " DE MARSEILLE - 75010 PARIS"}, {"latitude": 48.89849005307383, "name": "PORTE DE LA VILLETTE", "number": 19115, "longitude": 2.386120008210507, "zip_code": "1", "address": "1 AVENUE DE LA PORTE DE LA VILLETTE - 75019 PA", "city": "UE DE LA PORTE DE LA VILLETTE - 75019 PARIS"}, {"latitude": 48.832934193699835, "name": "CARDINAL LAVIGERIE", "number": 12113, "longitude": 2.402636749399156, "zip_code": "4", "address": "4 PLACE DU CARDINAL LAVIGERIE - 75012 PA", "city": "E DU CARDINAL LAVIGERIE - 75012 PARIS"}, {"latitude": 48.87215737993568, "name": "PYRENEES ERMITAGE", "number": 20042, "longitude": 2.391739173776302, "zip_code": "300", "address": "300 RUE DES PYRENEES - 75020 PA", "city": "E DES PYRENEES - 75020 PARIS"}, {"latitude": 48.860897797941035, "name": "BOURDONNAIS TOUR EIFFEL", "number": 7023, "longitude": 2.29559959844703, "zip_code": "75007", "address": "QUAI BRANLY", "city": "PARIS"}, {"latitude": 48.8875730709534, "name": "LEPIC", "number": 18113, "longitude": 2.33432733641793, "zip_code": "70", "address": "70 - 72 RUE LEPIC - 75018 PA", "city": "2 RUE LEPIC - 75018 PARIS"}, {"latitude": 48.8806060535742, "name": "SERRURIER", "number": 19027, "longitude": 2.3978962906105, "zip_code": "109", "address": "FA", "city": "ULEVARD SERURIER - 75019 PARIS"}, {"latitude": 48.886526983267544, "name": "JAURES 1 (PRE SAINT GERVAIS)", "number": 33102, "longitude": 2.407468689386476, "zip_code": "93310", "address": "RUE GABRIEL PERI ANGLE AVENUE JAURES", "city": "LE PRE SAINT GERVAIS"}, {"latitude": 48.88195317244523, "name": "DANUBE", "number": 19026, "longitude": 2.392496216649528, "zip_code": "53", "address": "53 RUE MIGUEL HIDALGO - 75019 PA", "city": " MIGUEL HIDALGO - 75019 PARIS"}, {"latitude": 48.88880002064895, "name": "PORTE DE COURCELLE", "number": 17028, "longitude": 2.296319931841717, "zip_code": "34", "address": "34 BOULEVARD DE REIMS - 75017 PA", "city": "LEVARD DE REIMS - 75017 PARIS"}, {"latitude": 48.88363915389933, "name": "RENNEQUIN PEREIRE", "number": 17030, "longitude": 2.295152067446227, "zip_code": "143", "address": "143 BOULEVARD DE PEREIRE - 75017 PA", "city": "ULEVARD DE PEREIRE - 75017 PARIS"}, {"latitude": 48.874575036780286, "name": "GARE DE L'EST SAINT LAURENT", "number": 10017, "longitude": 2.356796765204903, "zip_code": "1", "address": "1 RUE DE LA FIDELITE - 75010 PA", "city": "DE LA FIDELITE - 75010 PARIS"}, {"latitude": 48.84341723238589, "name": "SQUARE DES C\u00c3\u2030VENNES", "number": 15103, "longitude": 2.275108332056225, "zip_code": "01", "address": "01 RUE CAUCHY - 75015 PA", "city": " CAUCHY - 75015 PARIS"}, {"latitude": 48.872787680846464, "name": "SAINT PHILIPPE DU ROULE", "number": 8033, "longitude": 2.309722588932229, "zip_code": "1", "address": "1 RUE DU CDT RIVIERE - 75008 PA", "city": "DU CDT RIVIERE - 75008 PARIS"}, {"latitude": 48.8795614522371, "name": "BOTZARIS", "number": 19025, "longitude": 2.38896041078391, "zip_code": "80", "address": "FA", "city": " BOTZARIS - 75019 PARIS"}, {"latitude": 48.857999643314926, "name": "RIVOLI SEBASTOPOL", "number": 4018, "longitude": 2.350217280976349, "zip_code": "1", "address": "1 RUE SAINT BON - 75004 PA", "city": "SAINT BON - 75004 PARIS"}, {"latitude": 48.840610399663696, "name": "MICHEL ANGE", "number": 16118, "longitude": 2.258373658198948, "zip_code": "91", "address": "91 RUE MICHEL ANGE - 75016 PA", "city": " MICHEL ANGE - 75016 PARIS"}, {"latitude": 48.87000061719652, "name": "THOREL", "number": 2107, "longitude": 2.348995518049354, "zip_code": "11", "address": "11 RUE THOREL - 75002 PA", "city": " THOREL - 75002 PARIS"}, {"latitude": 48.814662495608864, "name": "SALENGRO (KREMLIN BICETRE)", "number": 42706, "longitude": 2.36134550272134, "zip_code": "3", "address": "3 RUE ROGER SALENGRO -  94270 LE KREMLIN BICE", "city": "ROGER SALENGRO -  94270 LE KREMLIN BICETRE"}, {"latitude": 48.8653941647232, "name": "GAMBETTA GATINES", "number": 20025, "longitude": 2.397814475307571, "zip_code": "13", "address": "13 RUE DES GATINES - 75020 PA", "city": " DES GATINES - 75020 PARIS"}, {"latitude": 48.88047087219649, "name": "JAURES (PUTEAUX)", "number": 28003, "longitude": 2.237362446304566, "zip_code": "152", "address": "152 RUE JEAN JAURES - 92800 PUTE", "city": "E JEAN JAURES - 92800 PUTEAUX"}, {"latitude": 48.83055599940998, "name": "COTY TOMBE D'ISSOIRE", "number": 14009, "longitude": 2.33378329803361, "zip_code": "49", "address": "49 RUE DE LA TOMBE D'ISSOIRE - 75014 PA", "city": " DE LA TOMBE D'ISSOIRE - 75014 PARIS"}, {"latitude": 48.86946960532872, "name": "GONCOURT", "number": 11035, "longitude": 2.371536810663942, "zip_code": "140", "address": "140 AVENUE PARMENTIER - 75011 PA", "city": "ENUE PARMENTIER - 75011 PARIS"}, {"latitude": 48.895470370399146, "name": "CHAMPIONNET", "number": 18101, "longitude": 2.349865450921441, "zip_code": "32", "address": "32 RUE CHAMPIONNET - 75018 PA", "city": " CHAMPIONNET - 75018 PARIS"}, {"latitude": 48.89106, "name": "QUAI DE METZ", "number": 19123, "longitude": 2.3865, "zip_code": "7", "address": "7 QUAI DE METZ - 75019 PA", "city": " DE METZ - 75019 PARIS"}, {"latitude": 48.845831419610754, "name": "THEBAUD RUE DE CAMBRONNE", "number": 15011, "longitude": 2.301753086991115, "zip_code": "32", "address": "32 RUE CAMBRONNE - 75015 PA", "city": " CAMBRONNE - 75015 PARIS"}, {"latitude": 48.83350833245743, "name": "SAINT EMILION", "number": 12033, "longitude": 2.386133168700345, "zip_code": "28", "address": "FA", "city": " FRANCOIS TRUFFAUT - 75012 PARIS"}, {"latitude": 48.869956681574806, "name": "GODOT DE MAUROY", "number": 9034, "longitude": 2.326599657113696, "zip_code": "2", "address": "2 RUE GODOT DE MAUROY - 75009 PA", "city": "GODOT DE MAUROY - 75009 PARIS"}, {"latitude": 48.83788362776244, "name": "MAINE GAITE", "number": 14035, "longitude": 2.322551640018162, "zip_code": "90", "address": "90 AVENUE DU MAINE - 75014 PA", "city": "NUE DU MAINE - 75014 PARIS"}, {"latitude": 48.83799829528177, "name": "LECORBUSIER (BOULOGNE-BILLANCOURT)", "number": 21009, "longitude": 2.240846664821182, "zip_code": "1", "address": "FACE ", "city": "LECORBUSIER - 92100 BOULOGNE-BILLANCOURT"}, {"latitude": 48.89058621555025, "name": "AVENUE DE LA PORTE D'ASNI\u00c3\u02c6RES", "number": 17023, "longitude": 2.303457408685266, "zip_code": "22", "address": "22 AVENUE DE LA PORTE D'ASNIERES - 75017 PA", "city": "NUE DE LA PORTE D'ASNIERES - 75017 PARIS"}, {"latitude": 48.868940642855314, "name": "COURONNES", "number": 20039, "longitude": 2.381282601102786, "zip_code": "44", "address": "44 BOULEVARD DE BELLEVILLE - 75020 PA", "city": "LEVARD DE BELLEVILLE - 75020 PARIS"}, {"latitude": 48.86585549636314, "name": "BELLES FEUILLES", "number": 16010, "longitude": 2.282859908979733, "zip_code": "4", "address": "4 RUE DES BELLES FEUILLES - 75016 PA", "city": "DES BELLES FEUILLES - 75016 PARIS"}, {"latitude": 48.87288299097443, "name": "WASHINGTON", "number": 8052, "longitude": 2.299972932642669, "zip_code": "2", "address": "2 RUE BALZAC - 75008 PA", "city": "BALZAC - 75008 PARIS"}, {"latitude": 48.88185715074461, "name": "WAGRAM COURCELLES", "number": 17026, "longitude": 2.301138378176729, "zip_code": "105", "address": "105 RUE JOUFFROY D'ABBANS - 75017 PA", "city": "E JOUFFROY D'ABBANS - 75017 PARIS"}, {"latitude": 48.81047749960048, "name": "LECLERC (KREMLIN BICETRE)", "number": 42702, "longitude": 2.358172896462481, "zip_code": "73", "address": "73 RUE DU GENERAL LECLERC - 94270 LE KREMELIN BICE", "city": " DU GENERAL LECLERC - 94270 LE KREMELIN BICETRE"}, {"latitude": 48.82774626607583, "name": "ABBE CARTON", "number": 14110, "longitude": 2.320714098089133, "zip_code": "89", "address": "89 RUE DE L'ABBE CARTON - 75014 PA", "city": " DE L'ABBE CARTON - 75014 PARIS"}, {"latitude": 48.87904931076023, "name": "GARE DU NORD 2", "number": 10152, "longitude": 2.354159095958248, "zip_code": "3", "address": "3 BOULEVARD DE DENAIN - 75010 PA", "city": "EVARD DE DENAIN - 75010 PARIS"}, {"latitude": 48.82341630050286, "name": "PORTE DE MONTROUGE 2", "number": 14107, "longitude": 2.322936857107952, "zip_code": "2", "address": "2 AVENUE DE LA PORTE DE MONTROUGE - 75014 PA", "city": "UE DE LA PORTE DE MONTROUGE - 75014 PARIS"}, {"latitude": 48.84817034136516, "name": "THEATRE", "number": 15031, "longitude": 2.289906646457531, "zip_code": "60", "address": "60 RUE DU THEATRE - 75015 PA", "city": " DU THEATRE - 75015 PARIS"}, {"latitude": 48.84925926211519, "name": "ST ANTOINE GONNET", "number": 11010, "longitude": 2.391754614194301, "zip_code": "1", "address": "1 RUE DES BOULETS - 75011 PA", "city": "DES BOULETS - 75011 PARIS"}, {"latitude": 48.85865170952645, "name": "BOSQUET SAINT DOMINIQUE", "number": 7021, "longitude": 2.303716580234576, "zip_code": "37", "address": "37 AVENUE BOSQUET - 75007 PA", "city": "NUE BOSQUET - 75007 PARIS"}, {"latitude": 48.870306124369975, "name": "POINCARE VICTOR HUGO", "number": 16005, "longitude": 2.285074541420228, "zip_code": "89", "address": "89 AVENUE RAYMOND POINCARE - 75016 PA", "city": "NUE RAYMOND POINCARE - 75016 PARIS"}, {"latitude": 48.8234505470138, "name": "ILES (ISSY LES MOULINEAUX)", "number": 21303, "longitude": 2.249665298288027, "zip_code": "92130", "address": "ANGLE AVENUE JEAN MONNET ET BOULEVARD DES ILES ", "city": "ISSY LES MOULINEAUX"}, {"latitude": 48.83285390827691, "name": "LABROUSTE", "number": 15041, "longitude": 2.306898478208195, "zip_code": "13", "address": "13 RUE FRANQUET - 75015 PA", "city": " FRANQUET - 75015 PARIS"}, {"latitude": 48.828595283857425, "name": "LAGROUA", "number": 13055, "longitude": 2.380220606266108, "zip_code": "18", "address": "18 RUE MARIE ANDREE LAGROUA - 75013 PA", "city": " MARIE ANDREE LAGROUA - 75013 PARIS"}, {"latitude": 48.833174958910085, "name": "PARADIS (BOULOGNE-BILLANCOURT)", "number": 21021, "longitude": 2.257005867300889, "zip_code": "128", "address": "FACE ", "city": "E DES ENFANTS DU PARADIS - 92100 BOULOGNE BILLANCOURT"}, {"latitude": 48.87742034308959, "name": "ECLUSES SAINT MARTIN", "number": 10025, "longitude": 2.366011448983217, "zip_code": "148", "address": "148 QUAI DE JEMMAPES - 75010 PA", "city": "AI DE JEMMAPES - 75010 PARIS"}, {"latitude": 48.868910127448686, "name": "MENILMONTANT BOYER", "number": 20121, "longitude": 2.392020489286297, "zip_code": "27", "address": "27 RUE BOYER - 75020 PA", "city": " BOYER - 75020 PARIS"}, {"latitude": 48.8933800500227, "name": "ROUVET DAMPIERRE", "number": 19011, "longitude": 2.38499975689617, "zip_code": "2", "address": "2 RUE ROUVET - 75019 PA", "city": "ROUVET - 75019 PARIS"}, {"latitude": 48.82190796881169, "name": "CHOISY POINT D'IVRY", "number": 13038, "longitude": 2.363334710614756, "zip_code": "28", "address": "28 AVENUE DE CHOISY - 75013 PA", "city": "NUE DE CHOISY - 75013 PARIS"}, {"latitude": 48.86648351450895, "name": "OPERA PYRAMIDES", "number": 1016, "longitude": 2.334433421223788, "zip_code": "27", "address": "27 RUE THERESE - 75001 PA", "city": " THERESE - 75001 PARIS"}, {"latitude": 48.864065046949904, "name": "FRANCAISE", "number": 1102, "longitude": 2.347597912716465, "zip_code": "6", "address": "6 RUE FRANCAISE - 75001 PA", "city": "FRANCAISE - 75001 PARIS"}, {"latitude": 48.852786944099584, "name": "FONTAINE RAYNOUARD", "number": 16025, "longitude": 2.275580584185594, "zip_code": "4", "address": "4 RUE JEAN DE LA FONTAINE - 75016 PA", "city": "JEAN DE LA FONTAINE - 75016 PARIS"}, {"latitude": 48.861720329027264, "name": "RUE DE SIAM", "number": 16017, "longitude": 2.275346568555312, "zip_code": "1", "address": "1 BIS RUE DE SIAM - 75016 PA", "city": "RUE DE SIAM - 75016 PARIS"}, {"latitude": 48.87809927643587, "name": "PORTE DES LILAS", "number": 20029, "longitude": 2.411046298532085, "zip_code": "57", "address": "57 RUE DES FRERES FLAVIEN - 75020 PA", "city": " DES FRERES FLAVIEN - 75020 PARIS"}, {"latitude": 48.843126205966946, "name": "GARE ROUTIERE ( SAINT CLOUD)", "number": 22101, "longitude": 2.222189235680779, "zip_code": "92210", "address": "GARE ROUTIERE - ARRET TRAM", "city": "SAINT CLOUD"}, {"latitude": 48.859358523592554, "name": "REPOS", "number": 20131, "longitude": 2.389613136684456, "zip_code": "41", "address": "41 RUE DU REPOS - 75020 PA", "city": " DU REPOS - 75020 PARIS"}, {"latitude": 48.859150287255645, "name": "RIVOLI SAINT DENIS", "number": 1003, "longitude": 2.347620087684511, "zip_code": "7", "address": "7 RUE SAINT DENIS - 75001 PA", "city": "SAINT DENIS - 75001 PARIS"}, {"latitude": 48.89282296302349, "name": "GUY MOCQUET", "number": 17001, "longitude": 2.326803489834799, "zip_code": "75017", "address": "RUE GUY MOCQUET", "city": "PARIS"}, {"latitude": 48.85946238924527, "name": "PONT NEUF", "number": 1010, "longitude": 2.344366128446111, "zip_code": "10", "address": "10 RUE BOUCHER - 75001 PA", "city": " BOUCHER - 75001 PARIS"}, {"latitude": 48.88818698581028, "name": "BROCHANT", "number": 17016, "longitude": 2.316861143151153, "zip_code": "3", "address": "3 RUE BROCHANT - 75017 PA", "city": "BROCHANT - 75017 PARIS"}, {"latitude": 48.85510629540472, "name": "ROQUETTE THIERE", "number": 11002, "longitude": 2.373424541930557, "zip_code": "37", "address": "37 RUE DE LA ROQUETTE - 75011 PA", "city": " DE LA ROQUETTE - 75011 PARIS"}, {"latitude": 48.821138751437616, "name": "VITRY DESAULT", "number": 13120, "longitude": 2.378718606608679, "zip_code": "75013", "address": "RUE PIERRE ET JOSEPH DESAULT", "city": "PARIS"}, {"latitude": 48.87042188343355, "name": "MALESHERBES PASQUIER", "number": 8004, "longitude": 2.323288994791708, "zip_code": "4", "address": "FA", "city": "ALESHERBES - 75008 PARIS"}, {"latitude": 48.87195626635528, "name": "PARC DE BELLEVILLE", "number": 20113, "longitude": 2.384981390278095, "zip_code": "30", "address": "30 RUE PIAT - 75020 PA", "city": " PIAT - 75020 PARIS"}, {"latitude": 48.88384326568884, "name": "AQUEDUC", "number": 10036, "longitude": 2.367110644031659, "zip_code": "80", "address": "80 RUE DE L'AQUEDUC - 75010 PA", "city": " DE L'AQUEDUC - 75010 PARIS"}, {"latitude": 48.8266572063246, "name": "PARIS 3 (CHARENTON)", "number": 42207, "longitude": 2.405876723011083, "zip_code": "136", "address": "136 RUE DE PARIS - 94220 CHAREN", "city": "E DE PARIS - 94220 CHARENTON"}, {"latitude": 48.841923663276546, "name": "VIVALDI", "number": 12028, "longitude": 2.389728979467376, "zip_code": "42", "address": "42 ALLEE VIVALDI - 75012 PA", "city": "EE VIVALDI - 75012 PARIS"}, {"latitude": 48.850977229793614, "name": "ST GERMAIN-DANTE", "number": 5008, "longitude": 2.346076825913541, "zip_code": "9", "address": "9 RUE DE DANTE - 75005 PA", "city": "DE DANTE - 75005 PARIS"}, {"latitude": 48.86614574652862, "name": "ALLEE PIERRE LAZAEFF", "number": 2003, "longitude": 2.350844595287827, "zip_code": "189", "address": "189 RUE SAINT DENIS - 75002 PA", "city": "E SAINT DENIS - 75002 PARIS"}, {"latitude": 48.86343050194121, "name": "COLONEL DRIANT", "number": 1026, "longitude": 2.340169767017624, "zip_code": "75001", "address": "PLACE DU LIEUTENANT HENRI KARCHER", "city": "PARIS"}, {"latitude": 48.87409248091576, "name": "JOURDAIN", "number": 20112, "longitude": 2.389435908330615, "zip_code": "3", "address": "3 RUE DU JOURDAIN - 75020 PA", "city": "DU JOURDAIN - 75020 PARIS"}, {"latitude": 48.87669268743692, "name": "MALAKOFF", "number": 16101, "longitude": 2.283457593383419, "zip_code": "161", "address": "161 AVENUE MALAKOFF - 75016 PA", "city": "ENUE MALAKOFF - 75016 PARIS"}, {"latitude": 48.8877723254283, "name": "LEGENDRE", "number": 17110, "longitude": 2.32036786584418, "zip_code": "83", "address": "83 RUE LEGENDRE - 75017 PA", "city": " LEGENDRE - 75017 PARIS"}, {"latitude": 48.8296843300915, "name": "AVIA", "number": 15120, "longitude": 2.275342586850291, "zip_code": "26", "address": "26 RUE DU COLONEL PIERRE AVIA - 75015 PA", "city": " DU COLONEL PIERRE AVIA - 75015 PARIS"}, {"latitude": 48.874794994841274, "name": "HOPITAL SAINT LOUIS", "number": 10114, "longitude": 2.366669436984963, "zip_code": "12", "address": "12 BIS RUE DE LA GRANGE AUX BELLES - 75010 PA", "city": " RUE DE LA GRANGE AUX BELLES - 75010 PARIS"}, {"latitude": 48.88561741628322, "name": "PORTE DE CHAMPERET", "number": 17031, "longitude": 2.290781411279206, "zip_code": "75017", "address": "PLACE DE LA PORTE DE CHAMPERET", "city": "PARIS"}, {"latitude": 48.8564374096868, "name": "BONAPARTE BEAUX ARTS", "number": 6021, "longitude": 2.334797622948368, "zip_code": "17", "address": "17 RUE DES BEAUX ARTS - 75006 PA", "city": " DES BEAUX ARTS - 75006 PARIS"}, {"latitude": 48.85615074338874, "name": "BOULAINVILLIERS", "number": 16031, "longitude": 2.275188414671189, "zip_code": "51", "address": "51 RUE DES VIGNES - 75016 PA", "city": " DES VIGNES - 75016 PARIS"}, {"latitude": 48.87279915599243, "name": "TRAKTIR", "number": 16103, "longitude": 2.291508179426733, "zip_code": "3", "address": "3 RUE TRAKTIR - 75016 PA", "city": "TRAKTIR - 75016 PARIS"}, {"latitude": 48.84612989154848, "name": "VAUGIRARD DESGOFFE", "number": 6027, "longitude": 2.324240578144087, "zip_code": "2", "address": "2 RUE BLAISE DESGOFFE - 75006 PA", "city": "BLAISE DESGOFFE - 75006 PARIS"}, {"latitude": 48.86729323621449, "name": "MONTAIGNE", "number": 8030, "longitude": 2.307691605650344, "zip_code": "25", "address": "25 RUE BAYARD - 75008 PA", "city": " BAYARD - 75008 PARIS"}, {"latitude": 48.84996003527753, "name": "MORLAND", "number": 4105, "longitude": 2.363239868721318, "zip_code": "17", "address": "17 BOULEVARD DU MORLAND - 75004 PA", "city": "LEVARD DU MORLAND - 75004 PARIS"}, {"latitude": 48.852919679957296, "name": "DAVOUT VOLGA", "number": 20044, "longitude": 2.410522909779111, "zip_code": "63", "address": "63 BOULEVARD DAVOUT / ANGLE 84 RUE VOLGA - 75020 PA", "city": "LEVARD DAVOUT / ANGLE 84 RUE VOLGA - 75020 PARIS"}, {"latitude": 48.82772523704757, "name": "CONSERVATION", "number": 12120, "longitude": 2.41827234236864, "zip_code": "75012", "address": "ROUTE DE LA CEINTURE DU LAC DAUMESNIL", "city": "PARIS"}, {"latitude": 48.86441140945903, "name": "FLANDRIN", "number": 16018, "longitude": 2.272448647646471, "zip_code": "2", "address": "2 BOULEVARD FLANDRIN - 75016 PA", "city": "EVARD FLANDRIN - 75016 PARIS"}, {"latitude": 48.830957464145705, "name": "NATIONALE BACH", "number": 13042, "longitude": 2.364107053254628, "zip_code": "150", "address": "150 RUE NATIONALE - 75013 PA", "city": "E NATIONALE - 75013 PARIS"}, {"latitude": 48.83648112918176, "name": "CHARLES DE GAULLE (NOGENT)", "number": 41302, "longitude": 2.479464268709081, "zip_code": "60", "address": "FACE ", "city": "NUE CHARLES DE GAULLES - 94130 NOGENT SUR MARNE"}, {"latitude": 48.89819702263572, "name": "COUTURIER 2 (LEVALLOIS)", "number": 23004, "longitude": 2.293848017974069, "zip_code": "109", "address": "109 RUE  PAUL VAILLANT COUTURIER - 92300 LEVALL", "city": "E  PAUL VAILLANT COUTURIER - 92300 LEVALLOIS"}, {"latitude": 48.840869459702354, "name": "CHAROLAIS", "number": 12109, "longitude": 2.387564334932072, "zip_code": "212", "address": "212 RUE DE CHARENTON - 75012 PA", "city": "E DE CHARENTON - 75012 PARIS"}, {"latitude": 48.87518586417745, "name": "VICTOIR CHAUSSEE D ANTIN", "number": 9030, "longitude": 2.332036313368639, "zip_code": "79", "address": "79 RUE DE LA VICTOIRE - 75009 PA", "city": " DE LA VICTOIRE - 75009 PARIS"}, {"latitude": 48.8896779050281, "name": "PECQUEUR", "number": 18017, "longitude": 2.33817871442611, "zip_code": "93", "address": "93 RUE CAULAINCOURT - 75018 PA", "city": " CAULAINCOURT - 75018 PARIS"}, {"latitude": 48.88470686398326, "name": "CHARTRES", "number": 18107, "longitude": 2.35358041022707, "zip_code": "22", "address": "22-24 RUE DE CHARTRES - 75018 PA", "city": "RUE DE CHARTRES - 75018 PARIS"}, {"latitude": 48.844838019227154, "name": "SEVRES LECOURBE", "number": 15008, "longitude": 2.311085506094106, "zip_code": "4", "address": "FA", "city": "EVARD PASTEUR - 75015 PARIS"}, {"latitude": 48.85129433458901, "name": "SEGUR ESTREES", "number": 7018, "longitude": 2.309747615603337, "zip_code": "23", "address": "23 AVENUE DE SEGUR - 75007 PA", "city": "NUE DE SEGUR - 75007 PARIS"}, {"latitude": 48.89713005307456, "name": "GRANDS MOULINS", "number": 19044, "longitude": 2.396079008206681, "zip_code": "75019", "address": "RUE DE LA CLOTURE / ANGLE RUE DU DEBARCADERE", "city": "PARIS"}, {"latitude": 48.873267841170026, "name": "VINAIGRIERS", "number": 10012, "longitude": 2.359323613430623, "zip_code": "58", "address": "58 RUE DES VINAIGRIERS - 75010 PA", "city": " DES VINAIGRIERS - 75010 PARIS"}, {"latitude": 48.86164049957625, "name": "PONT DE L'ALMA", "number": 7022, "longitude": 2.302250344175951, "zip_code": "3", "address": "3 AVENUE BOSQUET - 75007 PA", "city": "UE BOSQUET - 75007 PARIS"}, {"latitude": 48.889485840195675, "name": "CANDALE (PANTIN)", "number": 35012, "longitude": 2.414307515111288, "zip_code": "12", "address": "FACE ", "city": " CANDALE - 93500 PANTIN"}, {"latitude": 48.860245194532624, "name": "PONT NEUF - 14", "number": 1009, "longitude": 2.344333545273837, "zip_code": "14", "address": "14 RUE DU PONT NEUF - 75001 PA", "city": " DU PONT NEUF - 75001 PARIS"}, {"latitude": 48.83598100445596, "name": "ROLLET", "number": 15051, "longitude": 2.293467119128608, "zip_code": "1", "address": "1 PLACE HENRI ROLLET - 75015 PA", "city": "E HENRI ROLLET - 75015 PARIS"}, {"latitude": 48.851285276158144, "name": "STADE MARYSE HILSZ", "number": 20107, "longitude": 2.412733641628248, "zip_code": "26", "address": "26 RUE MARYSE HILSZ - 75020 PA", "city": " MARYSE HILSZ - 75020 PARIS"}, {"latitude": 48.883318044354574, "name": "CLICHY", "number": 8012, "longitude": 2.326207175385489, "zip_code": "10", "address": "10 BOULEVARD DES BATIGNOLLES SUR TPC - 75008 PA", "city": "LEVARD DES BATIGNOLLES SUR TPC - 75008 PARIS"}, {"latitude": 48.86749798940664, "name": "GAITE LYRIQUE", "number": 3012, "longitude": 2.353660816249226, "zip_code": "8", "address": "FA", "city": "SALOMON DE CAUS - 75003 PARIS"}, {"latitude": 48.870278078579595, "name": "BONNE NOUVELLE PROP2", "number": 10105, "longitude": 2.351281636686514, "zip_code": "2", "address": "2 RUE DE MAZAGRAN - 75010 PA", "city": "DE MAZAGRAN - 75010 PARIS"}, {"latitude": 48.872795019872605, "name": "HAVRE CAUMARTIN", "number": 9033, "longitude": 2.328315742616178, "zip_code": "45", "address": "FA", "city": " CAUMARTIN - 75009 PARIS"}, {"latitude": 48.820323646126774, "name": "ROMAIN ROLLAND", "number": 14116, "longitude": 2.32300304092451, "zip_code": "49", "address": "49-51 BD ROMAIN ROLLAND - 75014 PA", "city": "BD ROMAIN ROLLAND - 75014 PARIS"}, {"latitude": 48.84264777870052, "name": "MONTGALLET CHARENTON", "number": 12027, "longitude": 2.386164927813738, "zip_code": "2", "address": "2 RUE MONTGALLET - 75012 PA", "city": "MONTGALLET - 75012 PARIS"}, {"latitude": 48.82902666973469, "name": "EDISON", "number": 13034, "longitude": 2.361069024089417, "zip_code": "54", "address": "54 AVENUE EDISON - 75013 PA", "city": "NUE EDISON - 75013 PARIS"}, {"latitude": 48.87939826447722, "name": "BRUYERE PIGALLE", "number": 9026, "longitude": 2.333709173337285, "zip_code": "28", "address": "28 RUE J.B.PIGALLE - 75009 PA", "city": " J.B.PIGALLE - 75009 PARIS"}, {"latitude": 48.885437730894544, "name": "LEGENDRE", "number": 17013, "longitude": 2.316473835914172, "zip_code": "62", "address": "62 RUE LEGENDRE - 75017 PA", "city": " LEGENDRE - 75017 PARIS"}, {"latitude": 48.85550131286469, "name": "PARIS 2 (MONTREUIL)", "number": 31004, "longitude": 2.422055733613231, "zip_code": "175", "address": "175/179 RUE DE PARIS - 93100 MONTRE", "city": "9 RUE DE PARIS - 93100 MONTREUIL"}, {"latitude": 48.87219025140095, "name": "AUBER", "number": 9106, "longitude": 2.329423494000903, "zip_code": "3", "address": "3 RUE BOUDREAU - 75009 PA", "city": "BOUDREAU - 75009 PARIS"}, {"latitude": 48.85100487466529, "name": "MILLET - JEAN DE LA FONTAINE", "number": 16028, "longitude": 2.272469482915694, "zip_code": "12", "address": "12 RUE FRANCOIS MILLET - 75016 PA", "city": " FRANCOIS MILLET - 75016 PARIS"}, {"latitude": 48.896328348515986, "name": "LEIBNITZ", "number": 18034, "longitude": 2.333390423834684, "zip_code": "50", "address": "50 RUE LEIBNITZ - 75018 PA", "city": " LEIBNITZ - 75018 PARIS"}, {"latitude": 48.84375698130157, "name": "SAINT MICHEL HENRI BARBUSSE", "number": 5010, "longitude": 2.339306721981416, "zip_code": "1", "address": "1 RUE HENRI BARBUSSE - 75005 PA", "city": "HENRI BARBUSSE - 75005 PARIS"}, {"latitude": 48.84618800146489, "name": "DIDEROT BERCY", "number": 12102, "longitude": 2.37040616152132, "zip_code": "224", "address": "224 RUE DE BERCY - 75012 PA", "city": "E DE BERCY - 75012 PARIS"}, {"latitude": 48.84969041137042, "name": "POISSY", "number": 5019, "longitude": 2.352970183602024, "zip_code": "8", "address": "8-10 RUE DE POISSY - 75005 PA", "city": "UE DE POISSY - 75005 PARIS"}, {"latitude": 48.84509712653168, "name": "RUE MOLITOR", "number": 16038, "longitude": 2.265724147895062, "zip_code": "75016", "address": "RUE MOLITOR", "city": "PARIS"}, {"latitude": 48.87334627510507, "name": "LAFITTE ROSSINI", "number": 9022, "longitude": 2.337980867701675, "zip_code": "19", "address": "19 RUE ROSSINI - 75009 PA", "city": " ROSSINI - 75009 PARIS"}, {"latitude": 48.86530798423503, "name": "SAINT MAUR OBERKAMPF", "number": 11030, "longitude": 2.376019912019568, "zip_code": "80", "address": "80 RUE OBERKAMPF - 75011 PA", "city": " OBERKAMPF - 75011 PARIS"}, {"latitude": 48.863757931035046, "name": "BOIS DE BOULOGNE / PORTE DE LA MUETTE 2", "number": 16130, "longitude": 2.267504683574771, "zip_code": "75016", "address": "AVENUE LOUIS BARTHOU / PLACE DE LA COLOMBIE", "city": "PARIS"}, {"latitude": 48.84696126017499, "name": "MURS DU PARC (VINCENNES)", "number": 43009, "longitude": 2.452237396596088, "zip_code": "94300", "address": "AVENUE DES MURS DU PARC", "city": "VINCENNES"}, {"latitude": 48.84040040365445, "name": "FALGUIERE ARSONVAL", "number": 15113, "longitude": 2.313117867297474, "zip_code": "2", "address": "2 RUE D'ARSONVAL - 75015 PA", "city": "D'ARSONVAL - 75015 PARIS"}, {"latitude": 48.857091635218225, "name": "ILE DE LA CITE PONT NEUF", "number": 1001, "longitude": 2.341747995157864, "zip_code": "41", "address": "41 QUAI DE L'HORLOGE - 75001 PA", "city": "I DE L'HORLOGE - 75001 PARIS"}, {"latitude": 48.88412710804656, "name": "CLICHY", "number": 18044, "longitude": 2.328807098192234, "zip_code": "132", "address": "132 BOULEVARD DE CLICHY - 75018 PA", "city": "ULEVARD DE CLICHY - 75018 PARIS"}, {"latitude": 48.8936146524531, "name": "COUTURIER 1 (LEVALLOIS)", "number": 23001, "longitude": 2.277618727223195, "zip_code": "2", "address": "2 RUE PAUL VAILLANT COUTURIER - 92300 LEVALL", "city": "PAUL VAILLANT COUTURIER - 92300 LEVALLOIS"}, {"latitude": 48.877532084130166, "name": "MAC MAHON", "number": 17046, "longitude": 2.294512536052928, "zip_code": "18", "address": "18 AVENUE MARC MAHON - 75017 PA", "city": "NUE MARC MAHON - 75017 PARIS"}, {"latitude": 48.8887860708258, "name": "CIT\u00c3\u2030 DE LA MUSIQUE", "number": 19018, "longitude": 2.39268612206715, "zip_code": "210", "address": "FA", "city": "ENUE JEAN JAURES - 75019 PARIS"}, {"latitude": 48.816980981259285, "name": "VAILLANT COUTURIER", "number": 14126, "longitude": 2.332609687921881, "zip_code": "155", "address": "155 AVENUE PAUL VAILLANT COUTURIER - 75014 PA", "city": "ENUE PAUL VAILLANT COUTURIER - 75014 PARIS"}, {"latitude": 48.84842761367387, "name": "MICHEL ANGE AUTEUIL", "number": 16033, "longitude": 2.265253821160005, "zip_code": "85", "address": "85 RUE JEAN DE LA FONTAINE - 75016 PA", "city": " JEAN DE LA FONTAINE - 75016 PARIS"}, {"latitude": 48.8337, "name": "DIDOT CHATEAU", "number": 14031, "longitude": 2.3215, "zip_code": "13", "address": "13 RUE DIDOT - 75014 PA", "city": " DIDOT - 75014 PARIS"}, {"latitude": 48.851359912581465, "name": "MAISON DE RADIO FRANCE", "number": 16029, "longitude": 2.277697269448623, "zip_code": "1", "address": "1 RUE GROS - 75016 PA", "city": "GROS - 75016 PARIS"}, {"latitude": 48.8842894403224, "name": "WAGRAM (17EME ARR.)", "number": 17021, "longitude": 2.305497444260642, "zip_code": "75017", "address": "RUE JOUFFROY D'ABBANS", "city": "PARIS"}, {"latitude": 48.881472498481, "name": "JAURES VILLETTE", "number": 19116, "longitude": 2.37026248225988, "zip_code": "180", "address": "180 BOULEVARD DE LA VILLETTE - 75019 PA", "city": "ULEVARD DE LA VILLETTE - 75019 PARIS"}, {"latitude": 48.91157045930829, "name": "DIDEROT 2 (SAINT OUEN)", "number": 34010, "longitude": 2.333910127129224, "zip_code": "61", "address": "FA", "city": "RUE DIDEROT- 93400 SAINT OUEN"}, {"latitude": 48.883026659159576, "name": "PIERRET (NEUILLY)", "number": 22006, "longitude": 2.260096983931875, "zip_code": "33", "address": "33 RUE PIERRET - 92200 NEUILLY SUR SE", "city": " PIERRET - 92200 NEUILLY SUR SEINE"}, {"latitude": 48.886335082615275, "name": "LORRAINE", "number": 19014, "longitude": 2.38246120055766, "zip_code": "28", "address": "28 RUE DE LORRAINE - 75019 PA", "city": " DE LORRAINE - 75019 PARIS"}, {"latitude": 48.839635080561905, "name": "PLACE ADOLPHE CHERIOUX", "number": 15038, "longitude": 2.300654459291639, "zip_code": "18", "address": "18 PLACE ADOLPHE CHERIOUX - 75015 PA", "city": "CE ADOLPHE CHERIOUX - 75015 PARIS"}, {"latitude": 48.85160266522164, "name": "CHARONNE AVRON", "number": 20043, "longitude": 2.398403047037931, "zip_code": "48", "address": "48 BOULEVARD DE CHARONNE - 75011 PA", "city": "LEVARD DE CHARONNE - 75011 PARIS"}, {"latitude": 48.87068263384462, "name": "MENILMONTANT - PELLEPORT", "number": 20036, "longitude": 2.398959602331646, "zip_code": "164", "address": "164 RUE DE MENILMONTANT - 75020 PA", "city": "E DE MENILMONTANT - 75020 PARIS"}, {"latitude": 48.815529633678416, "name": "VERDIER (MONTROUGE)", "number": 21207, "longitude": 2.317029863731327, "zip_code": "92120", "address": "AVENUE VERDIER ANGLE AVENUE DE LA REPUBLIQUE", "city": "MONTROUGE"}, {"latitude": 48.852804604940296, "name": "DESAIX", "number": 15067, "longitude": 2.293077029857222, "zip_code": "23", "address": "23 RUE DESAIX - 75015 PA", "city": " DESAIX - 75015 PARIS"}, {"latitude": 48.885257971348466, "name": "LEPIC VERON", "number": 18114, "longitude": 2.334617735640665, "zip_code": "35", "address": "35 RUE VERON - 75018 PA", "city": " VERON - 75018 PARIS"}, {"latitude": 48.87775323400056, "name": "PLACE DE BUDAPEST", "number": 9035, "longitude": 2.327339290714228, "zip_code": "38", "address": "38 RUE DE LONDRES - 75009 PA", "city": " DE LONDRES - 75009 PARIS"}, {"latitude": 48.868660481539266, "name": "ABOUKIR", "number": 2016, "longitude": 2.35018588824494, "zip_code": "108", "address": "108 RUE D'ABOUKIR - 75002 PA", "city": "E D'ABOUKIR - 75002 PARIS"}, {"latitude": 48.847184641150214, "name": "JUSSIEU", "number": 5021, "longitude": 2.353398379689353, "zip_code": "41", "address": "41 RUE JUSSIEU - 75005 PA", "city": " JUSSIEU - 75005 PARIS"}, {"latitude": 48.88469160640549, "name": "MARCHE ST-PIERRE", "number": 18006, "longitude": 2.344139285947184, "zip_code": "75018", "address": "PLACE SAINT PIERRE", "city": "PARIS"}, {"latitude": 48.855965856210226, "name": "MAIRIE DU 4 EME", "number": 4015, "longitude": 2.356381154873061, "zip_code": "25", "address": "25 RUE DU PONT LOUIS PHILIPPE - 75004 PA", "city": " DU PONT LOUIS PHILIPPE - 75004 PARIS"}, {"latitude": 48.872747269036246, "name": "SAINT FARGEAU MORTIER", "number": 20117, "longitude": 2.408203454302088, "zip_code": "72", "address": "72 RUE SAINT-FARGEAU - 75020 PA", "city": " SAINT-FARGEAU - 75020 PARIS"}, {"latitude": 48.892139409307205, "name": "LOLIVE 1 (PANTIN)", "number": 35009, "longitude": 2.409107737701187, "zip_code": "104", "address": "104 AVENUE LOLIVE - 93500 PAN", "city": "ENUE LOLIVE - 93500 PANTIN"}, {"latitude": 48.884101293163106, "name": "MAIRIE DU 17EME", "number": 17012, "longitude": 2.322206025347343, "zip_code": "16", "address": "FA", "city": " DES BATIGNOLLES - 75017 PARIS"}, {"latitude": 48.88679881177337, "name": "SEINE FLANDRE", "number": 19029, "longitude": 2.374719516795626, "zip_code": "51", "address": "51 QUAI DE LA SEINE - 75019 PA", "city": "I DE LA SEINE - 75019 PARIS"}, {"latitude": 48.870893425955984, "name": "METZ", "number": 10004, "longitude": 2.353521565011111, "zip_code": "7", "address": "7 RUE DE METZ - 75010 PA", "city": "DE METZ - 75010 PARIS"}, {"latitude": 48.87077575727228, "name": "BOULEVARD MONTMARTRE", "number": 2010, "longitude": 2.343163334385358, "zip_code": "21", "address": "21 RUE D'UZES - 75002 PA", "city": " D'UZES - 75002 PARIS"}, {"latitude": 48.88235325984544, "name": "FONTAINE DOUAI", "number": 9027, "longitude": 2.333263372748175, "zip_code": "24", "address": "24 RUE DE DOUAI - 75009 PA", "city": " DE DOUAI - 75009 PARIS"}, {"latitude": 48.86442014173202, "name": "TEMPLE JEAN PIERRE TIMBAUD", "number": 11040, "longitude": 2.366136374249966, "zip_code": "18", "address": "18 BD DU TEMPLE - 75011 PA", "city": "DU TEMPLE - 75011 PARIS"},